10-14-22-STARLINK-passes-python.csv

#,,,,Start,,,Highest Point,,,End,,,,,,
#,Date,Satellite,Brightness (mag),Time,Altitude,Azimuth,Time,Altitude,Azimuth,Time,Altitude,Azimuth,,,,
,13-Oct,STARLINK-1015,11,17:06:02,10°,E,19:00:35,24°,ESE,20:10:40,10°,SE,,,,
,13-Oct,STARLINK-1029,8.4,17:23:43,10°,WSW,18:47:32,60°,SSE,19:15:40,10°,ENE,,,,
,13-Oct,STARLINK-1176,7.6,18:34:09,10°,SW,19:09:56,67°,SE,19:24:05,10°,ENE,,,,
,13-Oct,STARLINK-1713,8.4,18:48:09,10°,WNW,19:02:43,72°,SW,20:22:42,10°,ESE,,,,
,13-Oct,STARLINK-2095,8.3,18:48:22,10°,SW,19:09:21,50°,SSE,19:33:17,12°,E,,,,
,13-Oct,STARLINK-1228,7.4,18:49:49,10°,W,19:04:33,26°,SW,19:11:19,10°,SSE,,,,
,13-Oct,STARLINK-1247,8.6,18:53:55,10°,W,19:00:24,19°,NW,19:12:03,10°,N,,,,
,13-Oct,STARLINK-1031,6.2,18:54:51,10°,SW,19:03:10,75°,NW,19:15:13,10°,NNE,,,,
,13-Oct,STARLINK-1605,5.4,18:54:58,10°,NNW,19:01:27,65°,NE,19:11:14,10°,SE,,,,
,13-Oct,STARLINK-1767,7.7,18:55:03,10°,WSW,19:07:58,28°,SSW,19:16:43,10°,SSE,,,,
,13-Oct,STARLINK-1107,4.6,18:56:13,10°,NNW,19:00:44,58°,NE,19:07:42,10°,SE,,,,
,13-Oct,STARLINK-1742,7.6,18:58:11,10°,SW,19:08:24,29°,SSE,19:19:59,10°,ESE,,,,
,13-Oct,STARLINK-2272,5.4,18:58:17,10°,WNW,19:03:07,45°,SW,19:08:07,10°,SSE,,,,
,13-Oct,STARLINK-1056,8.1,19:00:37,10°,SW,19:41:17,88°,NW,20:00:03,10°,NE,,,,
,13-Oct,STARLINK-3947,4.4,19:00:51,10°,N,19:04:28,31°,NE,19:08:08,10°,ESE,,,,
,13-Oct,STARLINK-2480,5.7,19:01:14,10°,WNW,19:05:34,34°,SW,19:09:33,10°,SSE,,,,
,13-Oct,STARLINK-3239,?,19:01:19,10°,SSW,19:04:49,27°,SE,19:08:16,10°,E,,,,
,13-Oct,STARLINK-3415,4,19:01:47,10°,NNW,19:05:39,42°,NE,19:09:34,10°,ESE,,,,
,13-Oct,STARLINK-4770,3.6,19:01:49,10°,NNW,19:05:53,65°,NE,19:10:01,10°,SE,,,,
,13-Oct,STARLINK-2043,4.9,19:02:05,10°,SSW,19:05:15,23°,SE,19:08:28,10°,E,,,,
,13-Oct,STARLINK-2568,5.5,19:02:10,10°,SSW,19:06:40,28°,SE,19:11:25,10°,E,,,,
,13-Oct,STARLINK-4688,4.2,19:02:15,10°,SSW,19:05:13,29°,SE,19:08:10,10°,ENE,,,,
,13-Oct,STARLINK-4010,?,19:02:21,10°,NNW,19:06:23,67°,NE,19:10:32,10°,SE,,,,
,13-Oct,FALCON 9 DEB,?,19:02:35,10°,SSW,19:07:07,44°,SE,19:11:27,10°,ENE,,,,
,13-Oct,STARLINK-2377,6.5,19:03:04,10°,WSW,19:05:41,16°,SW,19:08:19,10°,S,,,,
,13-Oct,STARLINK-1165,5.5,19:03:36,10°,WSW,19:08:28,42°,NW,19:13:33,10°,NNE,,,,
,13-Oct,STARLINK-3346,6,19:03:49,10°,WSW,19:07:31,25°,NW,19:11:11,10°,N,,,,
,13-Oct,STARLINK-1258,8.8,19:04:06,10°,W,19:30:14,43°,SSW,19:52:08,10°,ESE,,,,
,13-Oct,STARLINK-3961,5.8,19:04:17,10°,W,19:07:51,28°,SW,19:11:27,10°,SSE,,,,
,13-Oct,STARLINK-1613,6.2,19:04:27,10°,SSE,19:05:20,10°,SSE,19:06:12,10°,SE,,,,
,13-Oct,STARLINK-3395,?,19:04:30,10°,NNW,19:08:24,41°,NE,19:12:22,10°,ESE,,,,
,13-Oct,STARLINK-2579,5.3,19:04:31,10°,SSW,19:08:04,23°,SE,19:11:35,10°,E,,,,
,13-Oct,STARLINK-4666,?,19:04:35,10°,SSW,19:08:15,13°,S,19:11:46,10°,SSE,,,,
,13-Oct,STARLINK-2525,4.3,19:04:38,10°,SSW,19:09:09,49°,SE,19:13:37,10°,ENE,,,,
,13-Oct,STARLINK-3659,?,19:04:57,10°,NNE,19:07:48,18°,ENE,19:10:42,10°,ESE,,,,
,13-Oct,STARLINK-2284,3.3,19:05:03,10°,SW,19:08:43,90°,NW,19:12:18,10°,NE,,,,
,13-Oct,STARLINK-4116,3.9,19:05:05,10°,SW,19:09:25,77°,NW,19:13:42,10°,NE,,,,
,13-Oct,STARLINK-1033,3.8,19:05:15,10°,SW,19:09:44,73°,SE,19:14:09,10°,NE,,,,
,13-Oct,STARLINK-4008,4.6,19:05:16,10°,WNW,19:09:18,50°,SW,19:13:26,10°,SSE,,,,
,13-Oct,STARLINK-3276,?,19:05:27,10°,SW,19:06:10,10°,SSW,19:06:52,10°,SSW,,,,
,13-Oct,STARLINK-1099,4.2,19:05:30,10°,SW,19:10:35,71°,SE,19:15:41,10°,NE,,,,
,13-Oct,STARLINK-3172,?,19:05:32,10°,NE,19:06:49,11°,ENE,19:08:07,10°,ENE,,,,
,13-Oct,STARLINK-4785,4.2,19:05:39,10°,S,19:07:15,17°,SE,19:09:00,10°,E,,,,
,13-Oct,STARLINK-1084,5.4,19:05:40,10°,W,19:08:29,26°,SW,19:11:23,10°,SSE,,,,
,13-Oct,STARLINK-1980,3.6,19:06:05,10°,SW,19:10:03,73°,SE,19:14:08,10°,NE,,,,
,13-Oct,STARLINK-2238,?,19:06:07,10°,SW,19:10:13,57°,NW,19:14:16,10°,NNE,,,,
,13-Oct,STARLINK-1434,6,19:06:11,10°,N,19:12:33,32°,ENE,19:19:51,10°,ESE,,,,
,13-Oct,STARLINK-4330,6.8,19:06:37,10°,NW,19:09:16,17°,W,19:11:55,10°,SW,,,,
,13-Oct,STARLINK-4534,?,19:06:40,10°,N,19:10:19,23°,NE,19:13:47,10°,ESE,,,,
,13-Oct,STARLINK-3653,?,19:06:44,10°,NNE,19:09:14,16°,ENE,19:11:46,10°,E,,,,
,13-Oct,STARLINK-1009,3.1,19:06:54,10°,N,19:08:00,15°,NE,19:09:06,10°,E,,,,
,13-Oct,STARLINK-3874,5.9,19:06:54,10°,S,19:09:06,14°,SSE,19:11:19,10°,ESE,,,,
,13-Oct,STARLINK-3236,?,19:07:12,10°,W,19:09:52,16°,WNW,19:12:31,10°,NNW,,,,
,13-Oct,STARLINK-4011,4.7,19:07:19,10°,N,19:10:42,25°,NE,19:14:06,10°,ESE,,,,
,13-Oct,STARLINK-2743,3.8,19:07:25,10°,NNW,19:11:41,70°,NE,19:16:19,10°,SE,,,,
,13-Oct,STARLINK-2127,6.1,19:07:27,10°,SSE,19:08:41,11°,SSE,19:09:56,10°,SE,,,,
,13-Oct,STARLINK-4176,5.9,19:07:34,10°,S,19:09:10,12°,SSE,19:10:46,10°,SE,,,,
,13-Oct,STARLINK-2104,5.5,19:07:36,10°,NNE,19:09:38,13°,ENE,19:11:43,10°,E,,,,
,13-Oct,STARLINK-3282,?,19:07:37,10°,WSW,19:09:49,14°,SSW,19:12:02,10°,S,,,,
,13-Oct,STARLINK-2160,6,19:07:44,10°,S,19:10:05,14°,SSE,19:12:26,10°,ESE,,,,
,13-Oct,STARLINK-3301,?,19:07:44,10°,WSW,19:09:32,12°,SSW,19:11:19,10°,S,,,,
,13-Oct,STARLINK-2430,6,19:07:45,10°,SSE,19:08:24,10°,SSE,19:09:03,10°,SE,,,,
,13-Oct,STARLINK-4299,5.3,19:07:47,10°,S,19:10:48,19°,SE,19:13:48,10°,E,,,,
,13-Oct,STARLINK-1184,6.5,19:07:52,10°,WSW,19:09:57,13°,SSW,19:12:02,10°,S,,,,
,13-Oct,STARLINK-4670,5.5,19:07:52,10°,WNW,19:11:35,32°,SW,19:15:19,10°,SSE,,,,
,13-Oct,STARLINK-1466,5.2,19:07:53,10°,SSW,19:12:28,31°,SE,19:17:01,10°,ENE,,,,
,13-Oct,STARLINK-1357,6.1,19:08:08,10°,SSW,19:15:11,43°,SE,19:24:16,11°,ENE,,,,
,13-Oct,STARLINK-1450,7.2,19:08:12,10°,SSW,19:08:47,10°,SSW,19:09:23,10°,SSW,,,,
,13-Oct,STARLINK-3627,6.8,19:08:16,10°,WSW,19:10:36,13°,SSW,19:12:59,10°,S,,,,
,13-Oct,STARLINK-4314,7,19:08:16,10°,NW,19:10:17,14°,W,19:12:19,10°,WSW,,,,
,13-Oct,STARLINK-1266,3.6,19:08:33,10°,SW,19:12:43,77°,SE,19:16:52,10°,NE,,,,
,13-Oct,STARLINK-3173,?,19:08:36,10°,NE,19:09:32,11°,ENE,19:10:28,10°,ENE,,,,
,13-Oct,STARLINK-1239,4.5,19:08:55,10°,NW,19:13:46,69°,SW,19:18:51,10°,SE,,,,
,13-Oct,STARLINK-4682,5.5,19:09:14,10°,S,19:11:08,13°,SE,19:13:01,10°,ESE,,,,
,13-Oct,STARLINK-3577,?,19:09:15,10°,SW,19:10:24,11°,SSW,19:11:34,10°,SSW,,,,
,13-Oct,STARLINK-2726,5.6,19:09:20,10°,NE,19:09:49,10°,ENE,19:10:18,10°,ENE,,,,
,13-Oct,STARLINK-3238,?,19:09:20,10°,SW,19:13:30,85°,SE,19:17:38,10°,NE,,,,
,13-Oct,STARLINK-4469,9.9,19:09:34,10°,NNW,19:40:23,39°,W,20:33:14,10°,SSW,,,,
,13-Oct,STARLINK-3333,4.8,19:09:51,10°,SSW,19:13:28,28°,SE,19:17:05,10°,ENE,,,,
,13-Oct,STARLINK-3449,?,19:10:06,10°,N,19:13:50,34°,NE,19:17:40,10°,ESE,,,,
,13-Oct,STARLINK-2197,4.8,19:10:16,10°,WSW,19:13:43,37°,NW,19:17:15,10°,NNE,,,,
,13-Oct,STARLINK-3195,?,19:10:18,10°,N,19:14:31,31°,NE,19:18:26,10°,ESE,,,,
,13-Oct,STARLINK-4401,?,19:10:35,10°,N,19:42:12,80°,WNW,20:26:56,10°,S,,,,
,13-Oct,STARLINK-1720,3.4,19:10:42,10°,SW,19:14:18,71°,NW,19:17:39,10°,NE,,,,
,13-Oct,STARLINK-2158,5.2,19:10:50,10°,SW,19:15:30,44°,NW,19:20:17,10°,NNE,,,,
,13-Oct,STARLINK-4711,6.8,19:10:50,10°,SW,19:11:30,10°,SSW,19:12:10,10°,SSW,,,,
,13-Oct,STARLINK-4252,6.6,19:10:56,10°,NNW,19:14:05,21°,W,19:17:17,10°,SW,,,,
,13-Oct,STARLINK-2448,4.7,19:11:03,10°,SSW,19:14:48,30°,SE,19:18:26,10°,ENE,,,,
,13-Oct,STARLINK-4020,6.4,19:11:14,10°,W,19:13:46,16°,WNW,19:16:17,10°,NNW,,,,
,13-Oct,STARLINK-4650,3.4,19:11:24,10°,NNE,19:12:28,16°,ENE,19:14:03,10°,ESE,,,,
,13-Oct,STARLINK-2253,?,19:11:25,10°,WSW,19:15:15,34°,NW,19:19:02,10°,NNE,,,,
,13-Oct,STARLINK-3304,?,19:11:31,10°,SW,19:12:13,10°,SSW,19:12:54,10°,SSW,,,,
,13-Oct,STARLINK-3277,?,19:11:31,10°,WSW,19:13:29,13°,SSW,19:15:28,10°,S,,,,
,13-Oct,STARLINK-3740,4.2,19:11:34,10°,NNW,19:15:30,38°,NE,19:19:19,10°,ESE,,,,
,13-Oct,STARLINK-1782,3.7,19:11:37,10°,SW,19:15:51,83°,NW,19:19:54,10°,NE,,,,
,13-Oct,STARLINK-4087,5.8,19:11:37,10°,S,19:13:23,12°,SSE,19:15:10,10°,ESE,,,,
,13-Oct,STARLINK-4699,5.2,19:11:42,10°,WNW,19:15:29,37°,SW,19:19:17,10°,SSE,,,,
,13-Oct,STARLINK-4726,?,19:11:42,10°,WSW,19:14:25,17°,SW,19:17:09,10°,S,,,,
,13-Oct,STARLINK-4200,?,19:11:53,10°,NW,19:15:55,62°,SW,19:20:05,10°,SE,,,,
,13-Oct,STARLINK-2361,5.6,19:11:59,10°,WSW,19:15:31,26°,NW,19:18:50,10°,N,,,,
,13-Oct,STARLINK-1211,4.6,19:12:02,10°,N,19:15:57,30°,NE,19:19:35,10°,ESE,,,,
,13-Oct,STARLINK-1573,4,19:12:03,10°,NNW,19:15:57,44°,NE,19:19:58,10°,SE,,,,
,13-Oct,STARLINK-1062,5.9,19:12:05,10°,W,19:14:31,17°,NW,19:16:55,10°,NNW,,,,
,13-Oct,STARLINK-4720,?,19:12:15,10°,W,19:15:39,24°,SW,19:19:05,10°,SSE,,,,
,13-Oct,STARLINK-3305,?,19:12:16,10°,W,19:15:13,19°,SW,19:18:11,10°,S,,,,
,13-Oct,STARLINK-2267,5,19:12:22,10°,WSW,19:16:14,37°,NW,19:20:06,10°,NNE,,,,
,13-Oct,STARLINK-2147,5.2,19:12:28,10°,SSW,19:16:14,25°,SE,19:19:54,10°,E,,,,
,13-Oct,STARLINK-1815,5,19:12:51,10°,SSW,19:16:02,22°,SE,19:18:54,10°,E,,,,
,13-Oct,STARLINK-4162,3.8,19:12:52,10°,SW,19:17:20,85°,SE,19:21:48,10°,NE,,,,
,13-Oct,STARLINK-2185,5.6,19:12:53,10°,SSW,19:16:15,20°,SE,19:19:38,10°,E,,,,
,13-Oct,STARLINK-4352,6.6,19:12:55,10°,NW,19:16:00,21°,W,19:19:09,10°,SW,,,,
,13-Oct,STARLINK-2423,6.8,19:13:05,10°,SW,19:13:55,10°,SSW,19:14:47,10°,SSW,,,,
,13-Oct,STARLINK-1992,7.5,19:13:19,10°,SW,19:18:22,16°,S,19:23:21,10°,SSE,,,,
,13-Oct,STARLINK-2387,6.5,19:13:28,10°,WSW,19:15:51,15°,SW,19:18:14,10°,S,,,,
,13-Oct,STARLINK-1507,3.2,19:13:29,10°,SW,19:17:05,74°,SE,19:20:40,10°,NE,,,,
,13-Oct,STARLINK-4019,3.6,19:13:37,10°,NNW,19:17:42,69°,NE,19:21:51,10°,SE,,,,
,13-Oct,STARLINK-1276,6.3,19:13:52,10°,SW,19:14:49,11°,SW,19:15:47,10°,SSW,,,,
,13-Oct,STARLINK-1437,4.2,19:13:57,10°,NNW,19:18:38,55°,NE,19:23:39,10°,SE,,,,
,13-Oct,STARLINK-4070,6.5,19:14:02,10°,W,19:16:26,15°,WNW,19:18:50,10°,NNW,,,,
,13-Oct,STARLINK-1150,10.7,19:14:07,10°,SW,20:52:53,60°,W,0:05:57,10°,NNW,,,,
,13-Oct,STARLINK-3390,?,19:14:15,10°,NW,19:18:35,71°,SW,19:22:56,10°,SE,,,,
,13-Oct,STARLINK-2064,6.1,19:14:36,10°,W,19:17:44,21°,SW,19:20:51,10°,SSE,,,,
,13-Oct,STARLINK-2348,3.4,19:14:39,10°,SW,19:18:10,62°,SE,19:21:53,10°,NE,,,,
,13-Oct,STARLINK-1686,5.9,19:14:45,10°,S,19:17:47,17°,SE,19:20:58,10°,ESE,,,,
,13-Oct,STARLINK-3228,?,19:14:54,10°,SW,19:16:49,85°,SE,19:19:42,10°,NE,,,,
,13-Oct,STARLINK-2425,4.9,19:14:56,10°,SW,19:19:50,53°,NW,19:24:59,10°,NNE,,,,
,13-Oct,STARLINK-4738,4.5,19:15:04,10°,N,19:18:39,29°,NE,19:22:18,10°,ESE,,,,
,13-Oct,STARLINK-5008,8,19:15:08,10°,WNW,19:33:02,52°,SW,19:49:06,10°,SE,,,,
,13-Oct,STARLINK-5053,6.2,19:15:20,10°,W,19:18:34,21°,SW,19:21:53,10°,SSE,,,,
,13-Oct,STARLINK-1978,7.7,19:15:24,10°,SW,19:22:27,22°,S,19:31:29,10°,SE,,,,
,13-Oct,STARLINK-3344,?,19:15:28,10°,N,19:18:46,24°,NE,19:22:05,10°,ESE,,,,
,13-Oct,STARLINK-1636,4.3,19:15:38,10°,WNW,19:18:44,43°,SW,19:22:00,10°,SSE,,,,
,13-Oct,STARLINK-3973,6,19:15:43,10°,W,19:19:05,24°,SW,19:22:30,10°,SSE,,,,
,13-Oct,STARLINK-2488,5,19:15:52,10°,N,19:19:34,23°,NE,19:23:02,10°,ESE,,,,
,13-Oct,STARLINK-1310,6.5,19:15:58,10°,W,19:17:30,12°,WNW,19:19:01,10°,NW,,,,
,13-Oct,STARLINK-3591,?,19:16:01,10°,W,19:19:30,26°,SW,19:23:05,10°,SSE,,,,
,13-Oct,STARLINK-4084,4.7,19:16:03,10°,SSW,19:19:41,30°,SE,19:22:55,12°,ENE,,,,
,13-Oct,STARLINK-3972,4.4,19:16:03,10°,SSW,19:19:52,37°,SE,19:23:17,12°,ENE,,,,
,13-Oct,STARLINK-1955,5.6,19:16:17,10°,NW,19:24:52,59°,SW,19:30:03,10°,SSE,,,,
,13-Oct,STARLINK-4798,5,19:16:27,10°,NNE,19:19:16,18°,ENE,19:22:05,10°,E,,,,
,13-Oct,STARLINK-2667,5.5,19:16:46,10°,NE,19:18:17,12°,ENE,19:19:26,11°,ENE,,,,
,13-Oct,STARLINK-1529,5.1,19:17:18,10°,S,19:19:59,19°,SE,19:22:25,11°,E,,,,
,13-Oct,STARLINK-1810,6.7,19:17:21,10°,SW,19:18:49,11°,SSW,19:20:18,10°,S,,,,
,13-Oct,STARLINK-3231,?,19:17:28,10°,SW,19:21:37,89°,SE,19:25:44,10°,NE,,,,
,13-Oct,STARLINK-4760,5,19:17:29,10°,NNE,19:20:24,19°,ENE,19:23:20,10°,ESE,,,,
,13-Oct,STARLINK-4071,3.9,19:17:41,10°,SSW,19:21:44,52°,SE,19:25:25,12°,ENE,,,,
,13-Oct,STARLINK-1066,4,19:17:46,10°,WNW,19:21:01,51°,SW,19:24:26,10°,SSE,,,,
,13-Oct,STARLINK-2035,5.7,19:17:48,10°,W,19:21:03,27°,SW,19:24:35,10°,SSE,,,,
,13-Oct,STARLINK-2526,6.1,19:17:50,10°,W,19:20:39,19°,NW,19:23:32,10°,N,,,,
,13-Oct,STARLINK-4792,4,19:17:57,10°,SW,19:22:32,71°,NW,19:26:46,10°,NNE,,,,
,13-Oct,STARLINK-4742,?,19:18:06,10°,NW,19:22:11,79°,NE,19:26:18,10°,SE,,,,
,13-Oct,STARLINK-1746,5.5,19:18:07,10°,WSW,19:21:58,31°,NW,19:25:47,10°,N,,,,
,13-Oct,STARLINK-1963,3.8,19:18:08,10°,NNW,19:21:31,38°,NE,19:24:54,10°,ESE,,,,
,13-Oct,STARLINK-3313,?,19:18:09,10°,WSW,20:07:52,50°,SSE,20:17:49,20°,E,,,,
,13-Oct,STARLINK-1993,4.5,19:18:13,10°,NW,19:22:22,57°,SW,19:26:46,10°,SE,,,,
,13-Oct,STARLINK-1976,6.2,19:18:23,10°,W,19:21:15,18°,NW,19:24:08,10°,N,,,,
,13-Oct,STARLINK-2420,5.8,19:18:53,10°,WSW,19:21:59,21°,WNW,19:24:51,10°,N,,,,
,13-Oct,STARLINK-1086,6.4,19:18:54,10°,W,19:23:02,24°,SW,19:27:03,10°,SSE,,,,
,13-Oct,STARLINK-1100,6.3,19:18:57,10°,W,19:22:39,23°,SW,19:26:26,10°,SSE,,,,
,13-Oct,STARLINK-5116,5.4,19:19:14,10°,SSW,19:23:22,26°,SE,19:27:03,12°,E,,,,
,13-Oct,STARLINK-2699,5.9,19:19:19,10°,SSE,19:20:06,10°,SSE,19:20:53,10°,SE,,,,
,13-Oct,STARLINK-3375,?,19:19:21,10°,SW,19:20:05,10°,SSW,19:20:51,10°,SSW,,,,
,13-Oct,STARLINK-4294,6.6,19:19:32,10°,W,19:21:20,12°,WNW,19:23:07,10°,NW,,,,
,13-Oct,STARLINK-4732,4.9,19:19:32,10°,WNW,19:23:27,43°,SW,19:27:23,10°,SSE,,,,
,13-Oct,STARLINK-2325,5.5,19:19:52,10°,S,19:22:29,16°,SE,19:25:04,10°,ESE,,,,
,13-Oct,STARLINK-2298,5.4,19:19:58,10°,S,19:23:00,19°,SE,19:25:50,11°,E,,,,
,13-Oct,STARLINK-3131,4.9,19:20:06,10°,SW,19:24:41,48°,NW,19:29:22,10°,NNE,,,,
,13-Oct,STARLINK-2729,4.9,19:20:11,10°,WSW,19:23:24,28°,WNW,19:25:52,10°,N,,,,
,13-Oct,STARLINK-1653,4.1,19:20:22,10°,SW,19:24:59,65°,SE,19:29:46,12°,NE,,,,
,13-Oct,STARLINK-3457,?,19:20:28,10°,NNE,19:22:59,16°,ENE,19:24:54,12°,E,,,,
,13-Oct,STARLINK-1168,6,19:20:32,10°,W,19:24:01,25°,SW,19:27:34,10°,SSE,,,,
,13-Oct,STARLINK-3352,?,19:20:32,10°,W,19:22:26,12°,WNW,19:24:18,10°,NW,,,,
,13-Oct,STARLINK-3969,6.3,19:20:32,10°,W,19:22:57,15°,WNW,19:25:22,10°,NNW,,,,
,13-Oct,STARLINK-1902,5.8,19:20:33,10°,W,19:22:48,17°,SW,19:24:59,10°,S,,,,
,13-Oct,STARLINK-3099,5.1,19:20:35,10°,NNE,19:22:01,12°,NE,19:22:24,12°,ENE,,,,
,13-Oct,STARLINK-1355,5.6,19:20:39,10°,S,19:23:18,16°,SE,19:25:58,10°,ESE,,,,
,13-Oct,STARLINK-4056,5.5,19:20:52,10°,S,19:24:05,19°,SE,19:27:03,11°,E,,,,
,13-Oct,FLOCK 4S 46,?,19:20:53,10°,ESE,19:21:12,11°,E,19:21:12,11°,E,,,,
,13-Oct,FALCON 9 DEB,?,19:20:55,10°,N,19:22:48,22°,NE,19:24:05,14°,E,,,,
,13-Oct,STARLINK-4175,5.9,19:21:01,10°,S,19:23:08,13°,SSE,19:25:14,10°,ESE,,,,
,13-Oct,FLOCK 4S 48,?,19:21:03,10°,SE,19:23:22,20°,E,19:25:40,10°,NNE,,,,
,13-Oct,STARLINK-3372,?,19:21:22,10°,WNW,19:25:15,38°,SW,19:29:13,10°,SSE,,,,
,13-Oct,STARLINK-3295,6,19:21:25,10°,SSE,19:22:36,11°,SSE,19:23:46,10°,SE,,,,
,13-Oct,STARLINK-1714,4.5,19:21:39,10°,SW,19:25:24,47°,NW,19:29:35,10°,NNE,,,,
,13-Oct,STARLINK-4344,7,19:21:44,10°,WNW,19:23:41,13°,W,19:25:40,10°,WSW,,,,
,13-Oct,STARLINK-4709,?,19:21:47,10°,NW,19:25:52,80°,NE,19:30:00,10°,SE,,,,
,13-Oct,STARLINK-1962,6.2,19:21:48,10°,W,19:25:07,22°,SW,19:28:34,10°,SSE,,,,
,13-Oct,STARLINK-4675,4,19:21:50,10°,NNW,19:25:23,36°,NE,19:28:55,10°,ESE,,,,
,13-Oct,STARLINK-1726,5.1,19:22:02,10°,WSW,19:25:28,34°,NW,19:29:29,10°,NNE,,,,
,13-Oct,STARLINK-3539,?,19:22:10,10°,WNW,19:27:05,35°,SW,19:31:44,10°,SSE,,,,
,13-Oct,STARLINK-3175,?,19:22:17,10°,NNE,19:24:55,17°,ENE,19:26:46,13°,E,,,,
,13-Oct,STARLINK-3980,3.6,19:22:18,10°,NNW,19:26:22,65°,NE,19:30:29,10°,SE,,,,
,13-Oct,STARLINK-4589,5.4,19:22:33,10°,WNW,19:26:17,33°,SW,19:30:02,10°,SSE,,,,
,13-Oct,STARLINK-2317,4.7,19:22:39,10°,WSW,19:26:02,35°,NW,19:29:24,10°,NNE,,,,
,13-Oct,STARLINK-1633,4.7,19:22:41,10°,SSW,19:27:30,44°,SE,19:31:43,14°,ENE,,,,
,13-Oct,STARLINK-1571,6.8,19:22:53,10°,WNW,19:24:04,11°,WNW,19:25:16,10°,NW,,,,
,13-Oct,STARLINK-1617,4.9,19:23:05,10°,N,19:27:05,26°,NE,19:30:51,10°,ESE,,,,
,13-Oct,STARLINK-2491,4.3,19:23:13,10°,WNW,19:26:15,40°,SW,19:29:19,10°,SSE,,,,
,13-Oct,STARLINK-2531,4,19:23:20,10°,SW,19:27:56,60°,SE,19:31:50,14°,NE,,,,
,13-Oct,STARLINK-4055,4.5,19:23:22,10°,SSW,19:27:14,35°,SE,19:30:12,15°,ENE,,,,
,13-Oct,STARLINK-1320,8,19:23:52,10°,W,19:36:16,36°,SSW,19:49:07,10°,SE,,,,
,13-Oct,OBJECT BC,?,19:23:58,10°,SSE,19:26:56,66°,E,19:29:50,10°,N,,,,
,13-Oct,STARLINK-4002,3.5,19:24:01,10°,NW,19:28:07,82°,NE,19:32:16,10°,SE,,,,
,13-Oct,STARLINK-1620,4.1,19:24:03,10°,SW,19:29:08,57°,SE,19:32:27,15°,ENE,,,,
,13-Oct,STARLINK-3954,5.3,19:24:04,10°,WSW,19:26:47,23°,NW,19:29:32,10°,N,,,,
,13-Oct,FALCON 9 DEB,?,19:24:04,10°,N,19:26:04,24°,NE,19:27:16,16°,E,,,,
,13-Oct,STARLINK-4096,6,19:24:09,10°,SSE,19:24:20,10°,SSE,19:24:33,10°,SSE,,,,
,13-Oct,STARLINK-3097,6.2,19:24:12,10°,W,19:27:23,21°,SW,19:30:24,10°,S,,,,
,13-Oct,STARLINK-1894,5.5,19:24:14,10°,S,19:27:00,17°,SE,19:29:34,11°,ESE,,,,
,13-Oct,STARLINK-1586,3.9,19:24:24,10°,NW,19:29:06,82°,NE,19:33:47,10°,SE,,,,
,13-Oct,STARLINK-3243,?,19:24:24,10°,WSW,19:26:39,14°,SSW,19:28:54,10°,S,,,,
,13-Oct,STARLINK-1656,6.6,19:24:25,10°,WSW,19:26:45,14°,SSW,19:29:07,10°,S,,,,
,13-Oct,STARLINK-2292,6.3,19:24:32,10°,WSW,19:28:40,25°,NW,19:33:06,10°,N,,,,
,13-Oct,STARLINK-4685,6.5,19:24:37,10°,WSW,19:26:32,13°,SSW,19:28:26,10°,S,,,,
,13-Oct,FALCON 9 DEB,?,19:24:50,10°,SSW,19:28:35,26°,SE,19:31:25,14°,E,,,,
,13-Oct,STARLINK-4060,5.9,19:24:50,10°,S,19:27:02,14°,SSE,19:29:13,10°,ESE,,,,
,13-Oct,STARLINK-3663,?,19:24:55,10°,NW,19:28:10,74°,NE,19:31:19,10°,SE,,,,
,13-Oct,STARLINK-2581,6.1,19:25:00,10°,S,19:28:05,16°,SSE,19:31:14,10°,ESE,,,,
,13-Oct,STARLINK-4536,?,19:25:01,10°,NW,19:29:05,82°,NE,19:33:12,10°,SE,,,,
,13-Oct,STARLINK-1129,3.9,19:25:12,10°,NNW,19:28:58,42°,NE,19:32:45,10°,ESE,,,,
,13-Oct,STARLINK-4747,5.7,19:25:20,10°,NE,19:25:27,10°,NE,19:25:27,10°,NE,,,,
,13-Oct,STARLINK-1139,3.9,19:25:21,10°,SSW,19:28:26,34°,SE,19:30:34,17°,ENE,,,,
,13-Oct,STARLINK-2418,6,19:25:21,10°,WSW,19:27:24,16°,SW,19:29:32,10°,S,,,,
,13-Oct,STARLINK-2053,6.2,19:25:30,10°,WSW,19:27:34,15°,SW,19:29:39,10°,S,,,,
,13-Oct,STARLINK-2098,4.1,19:25:31,10°,NW,19:29:40,68°,SW,19:34:03,10°,SE,,,,
,13-Oct,STARLINK-2170,4.9,19:25:32,10°,SSW,19:29:43,32°,SE,19:32:53,15°,E,,,,
,13-Oct,STARLINK-3310,5.4,19:25:32,10°,S,19:28:41,20°,SE,19:31:15,12°,E,,,,
,13-Oct,STARLINK-2193,4.8,19:25:36,10°,SSW,19:29:48,34°,SE,19:32:58,15°,E,,,,
,13-Oct,STARLINK-2646,5,19:25:40,10°,N,19:28:43,20°,ENE,19:31:08,13°,E,,,,
,13-Oct,STARLINK-4799,4.6,19:25:50,10°,N,19:29:12,25°,NE,19:32:33,10°,ESE,,,,
,13-Oct,STARLINK-1770,5.2,19:25:53,10°,NNE,19:29:06,20°,ENE,19:32:54,10°,ESE,,,,
,13-Oct,STARLINK-1868,7,19:25:56,10°,WSW,19:30:03,18°,SSW,19:34:04,10°,SSE,,,,
,13-Oct,STARLINK-3989,5.7,19:25:57,10°,WNW,19:29:34,29°,SW,19:33:14,10°,SSE,,,,
,13-Oct,STARLINK-4772,5,19:25:58,10°,N,19:28:56,19°,NE,19:30:57,14°,E,,,,
,13-Oct,STARLINK-4524,?,19:26:00,10°,NNW,19:30:26,50°,NE,19:34:36,10°,SE,,,,
,13-Oct,STARLINK-3979,4.1,19:26:01,10°,NNW,19:29:46,36°,NE,19:33:32,10°,ESE,,,,
,13-Oct,STARLINK-4074,3.7,19:26:01,10°,SW,19:30:06,74°,NW,19:34:06,10°,NE,,,,
,13-Oct,STARLINK-1921,3.3,19:26:10,10°,SW,19:29:59,86°,SE,19:33:20,13°,NE,,,,
,13-Oct,STARLINK-5075,4.7,19:26:10,10°,SSW,19:29:58,32°,SE,19:32:56,16°,E,,,,
,13-Oct,STARLINK-1681,4.7,19:26:25,10°,NW,19:30:47,64°,SW,19:36:47,10°,SE,,,,
,13-Oct,STARLINK-1255,5.9,19:26:26,10°,WSW,19:29:40,22°,NW,19:32:53,10°,N,,,,
,13-Oct,STARLINK-1657,6.3,19:26:29,10°,W,19:29:44,20°,SW,19:33:07,10°,SSE,,,,
,13-Oct,STARLINK-2402,5.2,19:26:39,10°,NNE,19:28:47,14°,NE,19:29:05,14°,ENE,,,,
,13-Oct,STARLINK-2569,6.7,19:26:42,10°,SW,19:28:28,12°,SSW,19:30:18,10°,S,,,,
,13-Oct,STARLINK-2134,3.9,19:26:46,10°,NNW,19:30:47,48°,NE,19:35:01,10°,SE,,,,
,13-Oct,STARLINK-2215,?,19:26:47,10°,SW,19:32:04,60°,SE,19:36:14,15°,ENE,,,,
,13-Oct,STARLINK-4030,4.7,19:26:48,10°,SW,19:30:47,44°,NW,19:34:44,10°,NNE,,,,
,13-Oct,STARLINK-4100,5.7,19:27:09,10°,S,19:29:38,15°,SE,19:32:01,10°,ESE,,,,
,13-Oct,STARLINK-4007,5,19:27:12,10°,WSW,19:30:56,36°,NW,19:34:38,10°,NNE,,,,
,13-Oct,STARLINK-1119,6.8,19:27:27,10°,SW,19:29:15,12°,SSW,19:31:05,10°,S,,,,
,13-Oct,STARLINK-3598,?,19:27:29,10°,SW,19:28:24,11°,SSW,19:29:18,10°,SSW,,,,
,13-Oct,STARLINK-1610,3.3,19:27:40,10°,SW,19:31:16,61°,SE,19:33:54,16°,NE,,,,
,13-Oct,STARLINK-4328,7.2,19:27:41,10°,WNW,19:28:54,11°,W,19:30:08,10°,WSW,,,,
,13-Oct,STARLINK-3554,?,19:27:42,10°,W,19:30:44,19°,SW,19:33:51,10°,S,,,,
,13-Oct,STARLINK-3958,5.5,19:27:43,10°,NNE,19:30:00,14°,ENE,19:30:12,14°,ENE,,,,
,13-Oct,STARLINK-4749,5.5,19:27:43,10°,S,19:30:21,17°,SE,19:32:30,11°,ESE,,,,
,13-Oct,STARLINK-1821,3.6,19:27:55,10°,SW,19:31:50,77°,SE,19:35:29,14°,NE,,,,
,13-Oct,STARLINK-1134,5.8,19:28:02,10°,S,19:29:39,12°,SSE,19:31:13,10°,SE,,,,
,13-Oct,STARLINK-1872,4.5,19:28:02,10°,N,19:31:32,28°,NE,19:35:01,10°,ESE,,,,
,13-Oct,STARLINK-3144,3.9,19:28:02,10°,SSW,19:30:48,30°,SE,19:32:22,18°,E,,,,
,13-Oct,STARLINK-4407,10.6,19:28:02,10°,S,20:03:49,29°,SSW,20:32:26,10°,W,,,,
,13-Oct,STARLINK-1199,5.7,19:28:05,10°,NE,19:28:57,11°,NE,19:28:57,11°,NE,,,,
,13-Oct,STARLINK-2280,6.4,19:28:08,10°,W,19:31:04,18°,SW,19:34:02,10°,S,,,,
,13-Oct,STARLINK-4679,?,19:28:14,10°,WNW,19:31:57,31°,SW,19:35:43,10°,SSE,,,,
,13-Oct,STARLINK-2392,3.9,19:28:30,10°,WSW,19:30:27,29°,NW,19:32:41,10°,NNE,,,,
,13-Oct,STARLINK-1634,6.2,19:28:34,10°,S,19:31:20,15°,SSE,19:34:13,10°,ESE,,,,
,13-Oct,STARLINK-4686,6.4,19:28:35,10°,WSW,19:31:07,16°,SW,19:33:41,10°,S,,,,
,13-Oct,STARLINK-1503,5.6,19:29:07,10°,S,19:30:33,12°,SE,19:31:59,10°,ESE,,,,
,13-Oct,FALCON 9 DEB,?,19:29:10,10°,WSW,19:33:31,42°,NW,19:37:37,10°,NNE,,,,
,13-Oct,STARLINK-3586,4.8,19:29:11,10°,N,19:32:20,21°,NE,19:34:27,15°,E,,,,
,13-Oct,OBJECT BG,?,19:29:19,10°,SSW,19:31:50,29°,WSW,19:34:19,10°,NW,,,,
,13-Oct,STARLINK-4348,7.1,19:29:34,10°,WNW,19:30:57,11°,W,19:32:19,10°,WSW,,,,
,13-Oct,STARLINK-3854,6.3,19:30:06,10°,W,19:33:03,19°,SW,19:36:03,10°,S,,,,
,13-Oct,STARLINK-3946,6.8,19:30:09,10°,WNW,19:30:59,10°,WNW,19:31:49,10°,NW,,,,
,13-Oct,STARLINK-2472,6.4,19:30:28,10°,WSW,19:33:38,19°,WNW,19:36:46,10°,NNW,,,,
,13-Oct,STARLINK-3776,6.4,19:30:59,10°,WNW,19:32:19,11°,WNW,19:33:38,10°,NW,,,,
,13-Oct,STARLINK-4646,6,19:31:06,10°,SSW,19:36:10,23°,SSE,19:39:37,13°,ESE,,,,
,13-Oct,STARLINK-5010,6.5,19:31:09,10°,WSW,19:33:45,16°,SW,19:36:23,10°,S,,,,
,13-Oct,FLOCK 4S 12,?,19:31:12,10°,S,19:33:55,48°,WSW,19:36:34,10°,NNW,,,,
,13-Oct,STARLINK-1193,6.6,19:31:23,10°,WSW,19:33:11,12°,SSW,19:34:59,10°,S,,,,
,13-Oct,STARLINK-1524,4.1,19:31:39,10°,NNW,19:35:32,40°,NE,19:39:25,10°,ESE,,,,
,13-Oct,STARLINK-1623,3.5,19:31:41,10°,NW,19:35:46,70°,NE,19:39:52,10°,SE,,,,
,13-Oct,STARLINK-4326,7.4,19:31:46,10°,WNW,19:32:27,10°,W,19:33:09,10°,W,,,,
,13-Oct,STARLINK-1378,6.4,19:31:55,10°,W,19:34:54,18°,SW,19:37:52,10°,S,,,,
,13-Oct,STARLINK-3299,5.3,19:32:07,10°,S,19:35:12,20°,SE,19:37:20,14°,ESE,,,,
,13-Oct,STARLINK-3202,?,19:32:18,10°,SW,19:36:18,45°,NW,19:40:15,10°,NNE,,,,
,13-Oct,STARLINK-2758,4.8,19:32:38,10°,SW,19:38:38,66°,SE,19:43:45,17°,NE,,,,
,13-Oct,STARLINK-1910,7.2,19:32:42,10°,SW,19:35:21,13°,SSW,19:37:53,10°,S,,,,
,13-Oct,STARLINK-4017,5.2,19:32:47,10°,WSW,19:36:30,32°,NW,19:40:11,10°,N,,,,
,13-Oct,FLOCK 4S 5,?,19:32:48,10°,SSE,19:35:36,35°,E,19:38:19,10°,NNE,,,,
,13-Oct,STARLINK-1958,6.4,19:32:48,10°,SSE,19:33:22,10°,SSE,19:33:57,10°,SE,,,,
,13-Oct,FALCON 9 DEB,?,19:32:50,10°,NNW,19:34:56,30°,NE,19:35:27,26°,E,,,,
,13-Oct,STARLINK-4180,5.3,19:32:53,10°,SSW,19:36:08,21°,SE,19:38:21,14°,ESE,,,,
,13-Oct,STARLINK-3290,4,19:33:00,10°,SW,19:37:17,65°,NW,19:41:16,12°,NNE,,,,
,13-Oct,STARLINK-1085,3.3,19:33:11,10°,NNW,19:37:00,66°,NE,19:40:47,10°,SE,,,,
,13-Oct,STARLINK-3296,?,19:33:13,10°,SW,19:34:51,12°,SSW,19:36:28,10°,S,,,,
,13-Oct,STARLINK-2359,3.8,19:33:28,10°,NNW,19:36:57,37°,NE,19:40:15,11°,ESE,,,,
,13-Oct,STARLINK-1487,3.1,19:33:36,10°,SW,19:37:01,69°,SE,19:39:15,20°,NE,,,,
,13-Oct,STARLINK-2414,1.8,19:33:38,10°,SW,19:35:47,52°,SE,19:36:12,39°,E,,,,
,13-Oct,STARLINK-2715,5.3,19:33:40,10°,WNW,19:36:55,29°,SW,19:40:11,10°,SSE,,,,
,13-Oct,STARLINK-4777,4.2,19:33:44,10°,NNW,19:37:28,35°,NE,19:41:12,10°,ESE,,,,
,13-Oct,STARLINK-3992,6.8,19:33:45,10°,SW,19:34:33,10°,SSW,19:35:22,10°,SSW,,,,
,13-Oct,STARLINK-4196,?,19:33:54,10°,WNW,19:37:54,53°,SW,19:41:59,10°,SSE,,,,
,13-Oct,STARLINK-3397,?,19:33:56,10°,NNW,19:37:59,64°,NE,19:42:07,10°,SE,,,,
,13-Oct,STARLINK-2055,4.4,19:34:03,10°,NNW,19:37:54,34°,NE,19:41:57,10°,ESE,,,,
,13-Oct,STARLINK-3401,6.7,19:34:04,10°,SW,19:35:32,11°,SSW,19:37:01,10°,S,,,,
,13-Oct,STARLINK-1115,3.8,19:34:12,10°,SSW,19:37:47,45°,SE,19:39:59,21°,ENE,,,,
,13-Oct,STARLINK-2249,?,19:34:22,10°,SW,19:38:19,44°,NW,19:42:13,10°,NNE,,,,
,13-Oct,STARLINK-4347,7.2,19:34:30,10°,WNW,19:35:46,11°,W,19:37:02,10°,WSW,,,,
,13-Oct,STARLINK-4616,4,19:34:43,10°,NNW,19:38:17,35°,NE,19:41:29,12°,ESE,,,,
,13-Oct,STARLINK-2133,6.1,19:34:49,10°,SSW,19:38:29,17°,SSE,19:41:33,10°,ESE,,,,
,13-Oct,STARLINK-4731,6,19:34:49,10°,W,19:38:01,22°,SW,19:41:13,10°,SSE,,,,
,13-Oct,STARLINK-3815,4.4,19:35:03,10°,SW,19:39:51,63°,NW,19:44:19,11°,NNE,,,,
,13-Oct,STARLINK-1561,5.5,19:35:06,10°,WSW,19:38:01,23°,NW,19:40:51,10°,N,,,,
,13-Oct,STARLINK-4766,4.9,19:35:14,10°,N,19:38:19,21°,NE,19:39:12,19°,ENE,,,,
,13-Oct,STARLINK-1316,6.1,19:35:15,10°,WSW,19:38:11,19°,WNW,19:41:07,10°,N,,,,
,13-Oct,STARLINK-4051,5.8,19:35:19,10°,S,19:37:46,15°,SE,19:39:49,11°,ESE,,,,
,13-Oct,STARLINK-1113,6.9,19:35:27,10°,SW,19:37:06,12°,SSW,19:38:44,10°,S,,,,
,13-Oct,STARLINK-4723,?,19:35:33,10°,WNW,19:39:26,41°,SW,19:43:23,10°,SSE,,,,
,13-Oct,STARLINK-3183,?,19:35:37,10°,NW,19:39:44,79°,SW,19:43:57,10°,SE,,,,
,13-Oct,STARLINK-3368,?,19:35:38,10°,NW,19:39:59,58°,SW,19:44:41,10°,SE,,,,
,13-Oct,STARLINK-3541,?,19:35:39,10°,NW,19:39:40,56°,SW,19:43:46,10°,SSE,,,,
,13-Oct,STARLINK-2615,4.7,19:35:44,10°,N,19:39:06,24°,NE,19:40:44,19°,E,,,,
,13-Oct,STARLINK-1880,6.3,19:35:55,10°,W,19:37:41,13°,WNW,19:39:27,10°,NNW,,,,
,13-Oct,STARLINK-1861,3.5,19:35:59,10°,SW,19:40:10,79°,SE,19:43:00,19°,NE,,,,
,13-Oct,TYVAK-0130,?,19:36:05,10°,SW,19:40:42,64°,SE,19:43:36,20°,ENE,,,,
,13-Oct,STARLINK-3350,?,19:36:14,10°,WNW,19:40:15,51°,SW,19:44:22,10°,SSE,,,,
,13-Oct,STARLINK-3868,6.9,19:36:16,10°,SW,19:36:45,10°,SSW,19:37:13,10°,SSW,,,,
,13-Oct,STARLINK-2410,6,19:36:19,10°,W,19:39:41,23°,SW,19:42:51,10°,SSE,,,,
,13-Oct,STARLINK-5022,5,19:36:22,10°,WNW,19:40:16,41°,SW,19:44:18,10°,SSE,,,,
,13-Oct,STARLINK-1741,5.9,19:36:23,10°,SSE,19:37:25,11°,SSE,19:38:26,10°,SE,,,,
,13-Oct,STARLINK-3826,6.3,19:36:24,10°,WSW,19:38:12,13°,SW,19:39:59,10°,S,,,,
,13-Oct,STARLINK-4773,4.5,19:36:26,10°,WNW,19:40:29,53°,SW,19:44:38,10°,SSE,,,,
,13-Oct,STARLINK-1630,5.1,19:36:31,10°,WSW,19:40:12,32°,NW,19:43:33,10°,N,,,,
,13-Oct,STARLINK-2244,?,19:36:36,10°,WNW,19:41:55,56°,SW,19:48:05,10°,SE,,,,
,13-Oct,STARLINK-1054,8.3,19:36:48,10°,NW,20:13:21,70°,SW,20:31:51,10°,SE,,,,
,13-Oct,STARLINK-2693,6.7,19:36:49,10°,SW,19:38:06,11°,SSW,19:39:23,10°,SSW,,,,
,13-Oct,STARLINK-2426,6.1,19:36:50,10°,W,19:39:16,15°,WNW,19:41:34,10°,NNW,,,,
,13-Oct,STARLINK-2444,5.6,19:36:50,10°,WSW,19:40:40,28°,NW,19:44:30,10°,N,,,,
,13-Oct,STARLINK-1721,4,19:36:56,10°,SSW,19:40:24,38°,SE,19:42:13,22°,E,,,,
,13-Oct,STARLINK-1766,6.1,19:37:18,10°,SW,19:50:28,65°,SE,19:56:56,21°,ENE,,,,
,13-Oct,STARLINK-4500,?,19:37:18,10°,NW,19:41:44,72°,NE,19:45:56,10°,SE,,,,
,13-Oct,STARLINK-1299,4.8,19:37:22,10°,SSW,19:41:52,36°,SE,19:44:26,20°,E,,,,
,13-Oct,STARLINK-4745,5.4,19:37:27,10°,WNW,19:41:15,33°,SW,19:45:09,10°,SSE,,,,
,13-Oct,STARLINK-1332,3.3,19:37:35,10°,NNW,19:41:05,54°,NE,19:44:39,10°,SE,,,,
,13-Oct,STARLINK-2505,3.8,19:37:35,10°,NW,19:41:48,81°,SW,19:46:05,10°,SE,,,,
,13-Oct,STARLINK-3552,6.4,19:37:37,10°,W,19:40:36,19°,SW,19:43:41,10°,S,,,,
,13-Oct,STARLINK-4809,3.6,19:37:39,10°,NW,19:41:47,86°,SW,19:45:59,10°,SE,,,,
,13-Oct,STARLINK-4150,5.7,19:37:42,10°,S,19:40:09,15°,SE,19:41:59,12°,ESE,,,,
,13-Oct,STARLINK-3091,4.6,19:37:51,10°,NW,19:40:41,36°,WSW,19:43:32,10°,S,,,,
,13-Oct,LEMUR 2 JENNIFERSONG,?,19:37:58,10°,SE,19:40:04,26°,E,19:40:04,26°,E,,,,
,13-Oct,STARLINK-2433,5.1,19:38:17,10°,S,19:40:56,18°,SE,19:42:18,15°,ESE,,,,
,13-Oct,STARLINK-1781,4.9,19:38:28,10°,WNW,19:42:28,40°,SW,19:46:13,10°,SSE,,,,
,13-Oct,STARLINK-2572,6.8,19:38:33,10°,WSW,19:41:34,16°,SSW,19:44:41,10°,S,,,,
,13-Oct,STARLINK-4718,?,19:38:45,10°,NNE,19:38:58,11°,NNE,19:38:58,11°,NNE,,,,
,13-Oct,STARLINK-1104,3.6,19:38:51,10°,SW,19:42:53,81°,NW,19:45:49,18°,NE,,,,
,13-Oct,STARLINK-1152,5.6,19:38:55,10°,WNW,19:43:14,33°,SW,19:47:00,10°,SSE,,,,
,13-Oct,STARLINK-2687,4.1,19:39:09,10°,SSW,19:43:32,52°,SE,19:46:10,22°,ENE,,,,
,13-Oct,STARLINK-2339,4,19:39:18,10°,SSW,19:42:51,40°,SE,19:44:37,24°,E,,,,
,13-Oct,STARLINK-3460,?,19:39:21,10°,N,19:42:09,19°,NE,19:42:09,19°,NE,,,,
,13-Oct,STARLINK-1153,6.5,19:39:25,10°,WSW,19:42:09,17°,SW,19:44:53,10°,S,,,,
,13-Oct,STARLINK-1813,4.2,19:39:27,10°,WSW,19:42:35,40°,NW,19:45:31,12°,NNE,,,,
,13-Oct,STARLINK-2614,4,19:39:28,10°,NNW,19:42:47,34°,NE,19:45:29,16°,ESE,,,,
,13-Oct,STARLINK-4721,?,19:39:33,10°,NW,19:42:12,68°,NE,19:44:15,15°,SE,,,,
,13-Oct,STARLINK-1493,4,19:39:39,10°,SW,19:44:22,88°,WNW,19:47:57,18°,NE,,,,
,13-Oct,STARLINK-3832,6.5,19:39:40,10°,WSW,19:41:50,14°,SSW,19:44:00,10°,S,,,,
,13-Oct,STARLINK-1644,6.6,19:40:11,10°,SW,19:40:35,10°,SW,19:40:59,10°,SSW,,,,
,13-Oct,STARLINK-4663,6.8,19:40:14,10°,SW,19:40:56,10°,SSW,19:41:38,10°,SSW,,,,
,13-Oct,STARLINK-1143,7.4,19:40:15,10°,NNE,19:47:26,17°,ENE,19:47:32,17°,ENE,,,,
,13-Oct,STARLINK-2619,7.6,19:40:15,10°,NE,19:41:57,11°,NE,19:41:57,11°,NE,,,,
,13-Oct,STARLINK-2295,5.6,19:40:18,10°,S,19:42:17,14°,SE,19:43:46,11°,ESE,,,,
,13-Oct,CHARLIE (NANOAVIONICS),?,19:40:19,10°,SSW,19:42:11,17°,WSW,19:44:02,10°,WNW,,,,
,13-Oct,STARLINK-4064,4.5,19:40:39,10°,SW,19:44:41,47°,NW,19:48:23,12°,NNE,,,,
,13-Oct,STARLINK-1108,7,19:40:56,10°,SW,19:42:57,12°,SSW,19:44:55,10°,S,,,,
,13-Oct,STARLINK-2103,5.4,19:40:59,10°,WNW,19:44:52,35°,SW,19:48:57,10°,SSE,,,,
,13-Oct,STARLINK-1154,4.5,19:41:01,10°,N,19:44:48,30°,NE,19:47:18,18°,ESE,,,,
,13-Oct,STARLINK-2435,6.6,19:41:05,10°,WSW,19:42:52,12°,SSW,19:44:40,10°,S,,,,
,13-Oct,STARLINK-1625,4.1,19:41:06,10°,NW,19:45:19,67°,SW,19:49:38,10°,SE,,,,
,13-Oct,STARLINK-2647,4.2,19:41:09,10°,NNW,19:44:53,34°,NE,19:47:34,17°,ESE,,,,
,13-Oct,STARLINK-3767,5.8,19:41:12,10°,S,19:43:37,15°,SE,19:45:25,12°,ESE,,,,
,13-Oct,STARLINK-1730,3.7,19:41:15,10°,SW,19:45:05,58°,SE,19:47:21,24°,ENE,,,,
,13-Oct,STARLINK-4744,?,19:41:15,10°,NW,19:44:41,78°,SW,19:48:04,10°,SE,,,,
,13-Oct,STARLINK-3200,?,19:41:22,10°,SW,19:45:21,46°,NW,19:49:00,12°,NNE,,,,
,13-Oct,STARLINK-3934,4,19:41:26,10°,NW,19:46:15,77°,SW,19:50:39,10°,SE,,,,
,13-Oct,STARLINK-4629,5.9,19:41:44,10°,S,19:44:20,15°,SSE,19:46:21,12°,ESE,,,,
,13-Oct,STARLINK-2698,4.1,19:41:49,10°,SSW,19:46:08,50°,SE,19:48:29,24°,ENE,,,,
,13-Oct,STARLINK-1966,3.2,19:41:51,10°,NW,19:45:33,73°,NE,19:49:19,10°,SE,,,,
,13-Oct,STARLINK-1771,5.6,19:41:52,10°,WNW,19:45:39,31°,SW,19:49:38,10°,SSE,,,,
,13-Oct,STARLINK-1707,6.6,19:41:55,10°,WSW,19:44:19,15°,SSW,19:46:57,10°,S,,,,
,13-Oct,STARLINK-2340,6.5,19:42:01,10°,W,19:45:37,22°,SSW,19:50:27,10°,SSE,,,,
,13-Oct,STARLINK-2266,6.6,19:42:01,10°,SW,19:43:47,12°,SSW,19:45:34,10°,S,,,,
,13-Oct,STARLINK-1132,6.5,19:42:05,10°,WSW,19:44:42,16°,SW,19:47:22,10°,S,,,,
,13-Oct,STARLINK-1959,3.1,19:42:14,10°,NNW,19:45:45,62°,NE,19:49:04,11°,SE,,,,
,13-Oct,STARLINK-1905,5.8,19:42:25,10°,WSW,19:45:43,23°,NW,19:49:01,10°,N,,,,
,13-Oct,STARLINK-4689,6.6,19:42:25,10°,WSW,19:44:07,12°,SSW,19:45:48,10°,S,,,,
,13-Oct,STARLINK-3336,4.2,19:42:35,10°,SW,19:46:50,59°,NW,19:50:15,15°,NNE,,,,
,13-Oct,STARLINK-2152,6.1,19:42:36,10°,W,19:45:25,20°,SW,19:48:17,10°,S,,,,
,13-Oct,STARLINK-4166,5.8,19:42:55,10°,S,19:44:51,13°,SSE,19:46:31,11°,ESE,,,,
,13-Oct,STARLINK-2125,6.1,19:43:06,10°,W,19:46:00,20°,SW,19:48:54,10°,S,,,,
,13-Oct,STARLINK-1008,6.9,19:43:08,10°,WNW,19:44:13,11°,WNW,19:45:18,10°,NW,,,,
,13-Oct,STARLINK-1990,4.6,19:43:11,10°,SW,19:47:14,45°,NW,19:50:49,12°,NNE,,,,
,13-Oct,STARLINK-4712,?,19:43:20,10°,NW,19:47:23,72°,NE,19:51:26,10°,SE,,,,
,13-Oct,STARLINK-1601,4.3,19:43:31,10°,NW,19:47:47,61°,SW,19:52:12,10°,SE,,,,
,13-Oct,STARLINK-3942,6,19:43:50,10°,NNE,19:43:58,10°,NNE,19:43:58,10°,NNE,,,,
,13-Oct,STARLINK-2051,4.6,19:44:01,10°,N,19:46:31,22°,NE,19:46:31,22°,NE,,,,
,13-Oct,STARLINK-4009,4.1,19:44:10,10°,SW,19:49:04,54°,SE,19:51:12,26°,ENE,,,,
,13-Oct,STARLINK-2602,6.1,19:44:18,10°,W,19:46:46,16°,NW,19:49:14,10°,NNW,,,,
,13-Oct,STARLINK-4750,4.9,19:44:24,10°,N,19:47:04,21°,NE,19:47:04,21°,NE,,,,
,13-Oct,STARLINK-3399,?,19:44:43,10°,N,19:48:20,31°,NE,19:49:45,24°,E,,,,
,13-Oct,STARLINK-4638,?,19:44:43,10°,NW,19:48:19,60°,SW,19:51:50,10°,SE,,,,
,13-Oct,STARLINK-2044,4.7,19:44:47,10°,WSW,19:48:32,38°,NW,19:51:56,12°,NNE,,,,
,13-Oct,STARLINK-5057,5.9,19:44:53,10°,W,19:48:24,25°,SW,19:52:01,10°,SSE,,,,
,13-Oct,STARLINK-1683,6.7,19:44:55,10°,SSW,19:51:04,27°,SE,19:56:55,15°,E,,,,
,13-Oct,STARLINK-1080,4.5,19:45:05,10°,SW,19:50:10,67°,NW,19:54:33,15°,NNE,,,,
,13-Oct,STARLINK-4006,4.1,19:45:06,10°,SSW,19:48:58,42°,SE,19:50:41,26°,E,,,,
,13-Oct,STARLINK-2692,5.7,19:45:23,10°,NNE,19:46:11,13°,NNE,19:46:11,13°,NNE,,,,
,13-Oct,STARLINK-4075,4,19:45:48,10°,SSW,19:49:44,46°,SE,19:51:29,27°,ENE,,,,
,13-Oct,FLOCK 4S 34,?,19:46:04,10°,SSE,19:48:56,33°,E,19:49:17,32°,ENE,,,,
,13-Oct,STARLINK-4209,?,19:46:14,10°,NNW,19:50:15,62°,NE,19:54:23,10°,SE,,,,
,13-Oct,KEPLER-13 (LUCKY),?,19:46:31,10°,SSW,19:48:44,24°,WSW,19:50:55,10°,NW,,,,
,13-Oct,STARLINK-2428,5.4,19:46:44,10°,WSW,19:50:40,30°,NW,19:54:16,10°,N,,,,
,13-Oct,STARLINK-3975,6.2,19:46:51,10°,W,19:50:03,21°,SW,19:53:18,10°,SSE,,,,
,13-Oct,FLOCK 4S 25,?,19:46:52,10°,SSE,19:49:45,78°,E,19:52:35,10°,N,,,,
,13-Oct,STARLINK-1217,4.7,19:47:31,10°,SSW,19:51:09,41°,SE,19:54:03,23°,ENE,,,,
,13-Oct,STARLINK-1498,6.5,19:47:49,10°,NNE,19:48:09,11°,NNE,19:48:09,11°,NNE,,,,
,13-Oct,STARLINK-4301,5.7,19:47:54,10°,W,19:51:17,27°,SW,19:54:37,10°,SSE,,,,
,13-Oct,STARLINK-4146,5.8,19:47:58,10°,S,19:49:53,13°,SSE,19:51:16,11°,SE,,,,
,13-Oct,STARLINK-1306,7.5,19:48:04,10°,W,19:53:24,21°,NW,20:00:22,10°,N,,,,
,13-Oct,STARLINK-4054,3.8,19:48:07,10°,SSW,19:52:13,55°,SE,19:54:03,29°,ENE,,,,
,13-Oct,STARLINK-3374,?,19:48:13,10°,N,19:50:48,22°,NE,19:50:48,22°,NE,,,,
,13-Oct,STARLINK-1941,5.1,19:48:30,10°,SSW,19:51:38,22°,SE,19:52:53,20°,ESE,,,,
,13-Oct,STARLINK-3281,?,19:48:30,10°,W,19:51:26,19°,SW,19:54:23,10°,S,,,,
,13-Oct,STARLINK-2543,3.8,19:48:35,10°,NNW,19:52:45,56°,NE,19:57:11,10°,SE,,,,
,13-Oct,STARLINK-2442,5.7,19:48:46,10°,W,19:51:11,20°,SW,19:53:43,10°,SSE,,,,
,13-Oct,STARLINK-1669,7.7,19:49:00,10°,W,20:01:07,43°,SSW,20:14:24,10°,SE,,,,
,13-Oct,STARLINK-4780,3.9,19:49:15,10°,NW,19:53:22,71°,SW,19:57:32,10°,SE,,,,
,13-Oct,STARLINK-3986,3.8,19:49:22,10°,NW,19:53:23,69°,SW,19:57:25,10°,SE,,,,
,13-Oct,STARLINK-3271,?,19:49:53,10°,NW,19:53:52,77°,NE,19:57:51,10°,SE,,,,
,13-Oct,STARLINK-1151,6.7,19:49:55,10°,WSW,19:51:43,12°,SSW,19:53:31,10°,S,,,,
,13-Oct,STARLINK-3179,?,19:49:58,10°,NW,19:54:04,73°,NE,19:58:15,10°,SE,,,,
,13-Oct,STARLINK-2467,3.6,19:50:10,10°,NW,19:54:32,78°,NE,19:58:41,10°,SE,,,,
,13-Oct,STARLINK-4762,6.7,19:50:17,10°,SW,19:51:40,11°,SSW,19:53:04,10°,SSW,,,,
,13-Oct,STARLINK-4350,6.9,19:50:31,10°,WNW,19:52:16,12°,W,19:54:01,10°,WSW,,,,
,13-Oct,STARLINK-4607,4.5,19:50:51,10°,WNW,19:54:46,49°,SW,19:58:42,10°,SSE,,,,
,13-Oct,STARLINK-1618,8.6,19:50:54,10°,NNW,20:34:10,67°,ENE,21:01:31,10°,SE,,,,
,13-Oct,BlueWalker 3,5.4,19:50:54,10°,SW,19:52:42,12°,SSW,19:54:31,10°,S,,,,
,13-Oct,STARLINK-3963,4.2,19:50:59,10°,NW,19:54:56,57°,SW,19:58:53,10°,SE,,,,
,13-Oct,STARLINK-4664,?,19:51:06,10°,NNW,19:54:48,36°,NE,19:55:50,30°,E,,,,
,13-Oct,STARLINK-1883,5.9,19:51:19,10°,S,19:53:20,13°,SSE,19:54:46,11°,SE,,,,
,13-Oct,STARLINK-3330,5.9,19:51:28,10°,S,19:52:59,12°,SSE,19:54:16,10°,SE,,,,
,13-Oct,STARLINK-2293,3.1,19:51:32,10°,SW,19:55:07,68°,SE,19:56:18,37°,ENE,,,,
,13-Oct,STARLINK-4642,5.7,19:51:32,10°,W,19:54:59,27°,SW,19:58:27,10°,SSE,,,,
,13-Oct,STARLINK-2464,6.3,19:51:47,10°,W,19:54:31,17°,WNW,19:57:14,10°,NNW,,,,
,13-Oct,STARLINK-2456,4.5,19:51:50,10°,SW,19:56:56,65°,NW,20:00:36,19°,NNE,,,,
,13-Oct,STARLINK-3929,3.7,19:51:52,10°,NW,19:56:27,82°,NE,20:00:44,10°,SE,,,,
,13-Oct,STARLINK-2037,3.7,19:52:07,10°,NW,19:56:10,74°,SW,20:00:15,10°,SE,,,,
,13-Oct,STARLINK-2707,5.3,19:52:09,10°,N,19:53:41,17°,NNE,19:53:41,17°,NNE,,,,
,13-Oct,STARLINK-2475,5.3,19:52:10,10°,SSW,19:55:19,20°,SE,19:56:28,18°,ESE,,,,
,13-Oct,STARLINK-3817,4.2,19:52:27,10°,SSW,19:56:40,47°,SE,19:58:20,31°,E,,,,
,13-Oct,STARLINK-4795,4.7,19:52:34,10°,WNW,19:56:32,46°,SW,20:00:34,10°,SSE,,,,
,13-Oct,STARLINK-3391,?,19:52:39,10°,NW,19:56:46,80°,NE,20:00:55,10°,SE,,,,
,13-Oct,STARLINK-4086,?,19:52:45,10°,WSW,19:58:59,21°,WNW,20:05:51,10°,NNW,,,,
,13-Oct,STARLINK-3204,?,19:53:08,10°,W,19:55:15,14°,WNW,19:57:22,10°,NNW,,,,
,13-Oct,STARLINK-3335,4.4,19:53:22,10°,SW,19:57:27,49°,NW,20:00:13,19°,NNE,,,,
,13-Oct,STARLINK-3113,?,19:53:23,10°,W,19:56:12,17°,WNW,19:58:59,10°,NNW,,,,
,13-Oct,STARLINK-1758,4.4,19:53:25,10°,SW,19:57:14,46°,NW,19:59:48,19°,NNE,,,,
,13-Oct,STARLINK-3353,4.9,19:53:26,10°,SW,19:58:10,47°,NW,20:01:56,15°,NNE,,,,
,13-Oct,STARLINK-1093,4.1,19:53:28,10°,WNW,19:56:45,47°,SW,20:00:05,10°,SSE,,,,
,13-Oct,STARLINK-1666,5.1,19:53:30,10°,SSW,19:57:44,32°,SE,19:59:37,25°,E,,,,
,13-Oct,STARLINK-4730,?,19:53:51,10°,NW,19:57:52,58°,SW,20:01:55,10°,SE,,,,
,13-Oct,STARLINK-4346,6.1,19:53:53,17°,ESE,19:54:25,17°,ESE,19:57:53,10°,SSE,,,,
,13-Oct,STARLINK-1043,5.9,19:53:57,10°,S,19:56:49,16°,SSE,19:58:22,14°,SE,,,,
,13-Oct,STARLINK-5059,5.4,19:53:59,10°,SSW,19:57:46,24°,SE,19:59:22,20°,ESE,,,,
,13-Oct,STARLINK-2688,5.2,19:54:10,10°,SSW,19:57:33,23°,SE,19:58:44,20°,ESE,,,,
,13-Oct,STARLINK-4059,5.2,19:54:12,10°,SSW,19:57:38,22°,SE,19:58:49,20°,ESE,,,,
,13-Oct,STARLINK-1166,3.7,19:54:18,10°,NNW,19:58:18,53°,NE,20:00:50,21°,ESE,,,,
,13-Oct,STARLINK-3452,?,19:54:23,10°,SW,19:55:43,11°,SSW,19:57:03,10°,SSW,,,,
,13-Oct,STARLINK-2630,3.5,19:54:27,10°,SW,19:58:30,83°,NW,20:00:31,30°,NE,,,,
,13-Oct,STARLINK-1673,4.2,19:54:30,10°,WNW,19:57:58,48°,SW,20:01:24,10°,SSE,,,,
,13-Oct,STARLINK-4016,4.7,19:54:38,10°,WNW,19:58:35,45°,SW,20:02:36,10°,SSE,,,,
,13-Oct,STARLINK-4193,?,19:54:46,10°,WNW,19:58:45,51°,SW,20:02:52,10°,SSE,,,,
,13-Oct,FALCON 9 DEB,?,19:54:55,10°,W,19:57:22,14°,WNW,19:59:46,10°,NNW,,,,
,13-Oct,STARLINK-4779,3.6,19:55:04,10°,NNW,19:59:03,56°,NE,20:01:35,21°,ESE,,,,
,13-Oct,STARLINK-4751,4.2,19:55:10,10°,N,19:58:51,33°,NE,19:58:56,33°,ENE,,,,
,13-Oct,STARLINK-1036,6.1,19:55:43,10°,SSE,19:57:01,11°,SSE,19:58:19,10°,SE,,,,
,13-Oct,STARLINK-5050,6.2,19:55:47,10°,W,19:59:02,21°,SW,20:02:20,10°,SSE,,,,
,13-Oct,STARLINK-2122,6,19:55:52,10°,W,19:59:22,24°,SW,20:03:00,10°,SSE,,,,
,13-Oct,STARLINK-2010,4.9,19:55:54,10°,WNW,19:59:05,33°,SW,20:02:11,10°,SSE,,,,
,13-Oct,STARLINK-4044,3.5,19:55:57,10°,SW,20:00:03,83°,SE,20:01:43,34°,NE,,,,
,13-Oct,STARLINK-4111,4.1,19:55:58,10°,SW,20:00:08,57°,NW,20:02:34,23°,NNE,,,,
,13-Oct,STARLINK-1231,5.1,19:56:13,10°,N,20:00:48,32°,ENE,20:03:48,21°,ESE,,,,
,13-Oct,STARLINK-1864,5.7,19:56:20,10°,WSW,19:59:00,19°,NW,20:01:43,10°,N,,,,
,13-Oct,STARLINK-4789,6.4,19:56:27,10°,W,19:59:21,18°,SW,20:02:16,10°,S,,,,
,13-Oct,STARLINK-4490,?,19:56:35,10°,NNW,20:00:49,43°,NE,20:02:16,31°,E,,,,
,13-Oct,STARLINK-2659,5.2,19:56:42,10°,SSW,20:00:14,24°,SE,20:01:21,21°,ESE,,,,
,13-Oct,STARLINK-4014,5.4,19:56:47,10°,WSW,20:00:15,27°,NW,20:03:37,10°,N,,,,
,13-Oct,STARLINK-5021,5.3,19:56:54,10°,WNW,20:00:38,33°,SW,20:04:24,10°,SSE,,,,
,13-Oct,STARLINK-4081,3.9,19:57:04,10°,SW,20:01:09,62°,NW,20:03:17,26°,NNE,,,,
,13-Oct,STARLINK-3917,5.8,19:57:15,10°,N,19:57:51,12°,NNE,19:57:51,12°,NNE,,,,
,13-Oct,STARLINK-4612,6.5,19:57:19,10°,WSW,19:59:48,15°,SW,20:02:16,10°,S,,,,
,13-Oct,STARLINK-1572,3.8,19:57:31,10°,NNW,20:01:30,48°,NE,20:03:11,30°,ESE,,,,
,13-Oct,STARLINK-3327,4.9,19:57:35,10°,SSW,20:01:05,26°,SE,20:01:58,24°,ESE,,,,
,13-Oct,STARLINK-1264,6,19:57:38,10°,SSE,19:58:41,11°,SSE,19:59:45,10°,SE,,,,
,13-Oct,STARLINK-3176,?,19:57:58,10°,W,20:01:03,20°,SW,20:04:11,10°,S,,,,
,13-Oct,STARLINK-1588,3.5,19:57:59,10°,NNW,20:01:47,56°,NE,20:03:42,27°,ESE,,,,
,13-Oct,STARLINK-1700,6,19:58:11,10°,SW,20:06:56,66°,SE,20:14:28,26°,ENE,,,,
,13-Oct,STARLINK-1838,5.4,19:58:44,10°,WSW,20:01:15,20°,NW,20:03:32,11°,N,,,,
,13-Oct,STARLINK-1121,4.2,19:58:49,10°,NW,20:03:22,68°,SW,20:08:07,10°,SE,,,,
,13-Oct,STARLINK-1783,5.2,19:59:28,10°,SSW,20:04:04,32°,SE,20:05:47,26°,ESE,,,,
,13-Oct,STARLINK-4784,3.9,19:59:35,10°,NNW,20:03:29,43°,NE,20:04:15,38°,E,,,,
,13-Oct,STARLINK-4739,?,19:59:41,10°,NNW,20:03:28,39°,NE,20:03:38,39°,ENE,,,,
,13-Oct,STARLINK-4753,4.2,19:59:42,10°,NNW,20:03:01,34°,NE,20:03:01,34°,NE,,,,
,13-Oct,STARLINK-4776,5.7,19:59:48,10°,N,20:00:26,13°,N,20:00:26,13°,N,,,,
,13-Oct,FLOCK 4S 19,?,20:00:09,10°,S,20:03:06,67°,WSW,20:06:02,10°,NNW,,,,
,13-Oct,STARLINK-4195,?,20:00:18,10°,N,20:02:02,20°,NNE,20:02:02,20°,NNE,,,,
,13-Oct,STARLINK-4790,5.5,20:00:18,10°,N,20:01:23,16°,N,20:01:23,16°,N,,,,
,13-Oct,STARLINK-1218,4.6,20:00:53,10°,W,20:02:22,16°,NW,20:02:55,15°,NW,,,,
,13-Oct,STARLINK-1709,4.9,20:00:59,10°,NNW,20:02:16,19°,N,20:02:16,19°,N,,,,
,13-Oct,STARLINK-4422,4.8,20:01:08,10°,WSW,20:05:28,43°,NW,20:08:29,19°,NNE,,,,
,13-Oct,STARLINK-1317,4.6,20:01:29,10°,SSW,20:04:18,23°,SE,20:04:23,23°,SE,,,,
,13-Oct,STARLINK-3156,5.9,20:01:42,10°,S,20:04:09,14°,SSE,20:05:12,13°,SE,,,,
,13-Oct,STARLINK-4170,5.1,20:01:43,10°,SSW,20:05:00,22°,SE,20:05:41,21°,SE,,,,
,13-Oct,STARLINK-2237,?,20:01:48,10°,SSW,20:05:15,28°,SE,20:05:49,26°,ESE,,,,
,13-Oct,STARLINK-1074,6,20:02:41,10°,W,20:07:03,29°,SW,20:11:27,10°,SSE,,,,
,13-Oct,STARLINK-1604,4.1,20:03:01,10°,SSW,20:06:45,40°,SE,20:07:27,37°,ESE,,,,
,13-Oct,FALCON 9 DEB,?,20:03:13,10°,WSW,20:06:54,23°,WNW,20:10:25,10°,N,,,,
,13-Oct,STARLINK-4015,4.4,20:03:32,10°,WNW,20:07:30,52°,SW,20:11:28,10°,SSE,,,,
,13-Oct,STARLINK-1492,4.3,20:03:42,10°,WNW,20:06:35,36°,SW,20:08:39,14°,SSE,,,,
,13-Oct,STARLINK-3167,5.6,20:03:48,10°,SSE,20:04:44,11°,SE,20:04:44,11°,SE,,,,
,13-Oct,STARLINK-4754,6,20:03:49,10°,W,20:07:15,24°,SW,20:10:45,10°,SSE,,,,
,13-Oct,STARLINK-3811,5,20:04:00,10°,SSW,20:07:28,25°,SE,20:08:05,24°,SE,,,,
,13-Oct,STARLINK-1130 (DARKSAT),5.6,20:04:03,10°,W,20:07:19,26°,SW,20:10:34,10°,SSE,,,,
,13-Oct,STARLINK-4511,5.4,20:04:06,10°,SSW,20:06:56,18°,SE,20:07:31,18°,SE,,,,
,13-Oct,STARLINK-1318,4.8,20:04:14,10°,WNW,20:09:26,50°,SW,20:13:33,10°,SSE,,,,
,13-Oct,STARLINK-4528,?,20:04:15,10°,NNW,20:08:18,39°,NE,20:08:18,39°,NE,,,,
,13-Oct,STARLINK-4042,3.9,20:04:22,10°,SSW,20:08:14,45°,SE,20:08:55,41°,ESE,,,,
,13-Oct,STARLINK-3361,?,20:04:24,10°,WSW,20:09:54,26°,WNW,20:13:26,10°,N,,,,
,13-Oct,STARLINK-3568,?,20:04:25,10°,W,20:07:52,25°,SW,20:11:23,10°,SSE,,,,
,13-Oct,STARLINK-4104,4,20:04:41,10°,SW,20:08:51,61°,NW,20:10:35,32°,NNE,,,,
,13-Oct,STARLINK-2613,6.3,20:04:43,10°,S,20:06:21,11°,SSE,20:07:57,10°,SE,,,,
,13-Oct,STARLINK-4759,6.3,20:04:51,10°,W,20:08:02,20°,SW,20:11:18,10°,SSE,,,,
,13-Oct,STARLINK-4782,5.1,20:04:56,10°,N,20:06:40,21°,N,20:06:40,21°,N,,,,
,13-Oct,STARLINK-2738,5.3,20:05:01,10°,N,20:06:30,19°,N,20:06:30,19°,N,,,,
,13-Oct,STARLINK-1977,5.3,20:05:04,10°,WNW,20:08:18,29°,SW,20:11:33,10°,SSE,,,,
,13-Oct,STARLINK-4145,4.4,20:05:15,10°,SSW,20:09:09,37°,SE,20:09:49,34°,ESE,,,,
,13-Oct,STARLINK-3334,3.6,20:05:18,10°,SW,20:09:32,79°,NW,20:10:59,40°,NNE,,,,
,13-Oct,STARLINK-1068,4.7,20:05:21,10°,SW,20:09:52,48°,NW,20:12:25,23°,NNE,,,,
,13-Oct,STARLINK-3531,?,20:05:32,10°,WNW,20:09:37,33°,SW,20:13:38,10°,SSE,,,,
,13-Oct,STARLINK-2083,6.4,20:05:51,10°,S,20:07:45,12°,SSE,20:09:26,10°,SE,,,,
,13-Oct,STARLINK-1037,5.6,20:05:55,10°,SSW,20:11:44,35°,SE,20:14:08,27°,ESE,,,,
,13-Oct,STARLINK-4755,3.5,20:05:56,10°,NW,20:10:02,88°,NE,20:13:09,17°,SE,,,,
,13-Oct,STARLINK-2017,5.9,20:06:08,10°,W,20:09:52,27°,SW,20:13:47,10°,SSE,,,,
,13-Oct,STARLINK-2329,3.4,20:06:13,10°,NNW,20:10:03,60°,NE,20:10:47,49°,E,,,,
,13-Oct,STARLINK-4041,5,20:06:39,10°,SSW,20:09:44,22°,SE,20:09:57,22°,SE,,,,
,13-Oct,STARLINK-3513,?,20:06:42,10°,NNW,20:10:45,61°,NE,20:12:04,39°,ESE,,,,
,13-Oct,STARLINK-4292,4.9,20:06:42,10°,WSW,20:10:45,39°,NW,20:13:07,21°,N,,,,
,13-Oct,STARLINK-2626,7.2,20:06:45,10°,W,20:15:54,36°,SW,20:24:18,10°,SSE,,,,
,13-Oct,STARLINK-5035,5.7,20:07:04,10°,W,20:10:43,29°,SW,20:14:29,10°,SSE,,,,
,13-Oct,STARLINK-2485,5,20:07:09,10°,SSW,20:10:25,23°,SE,20:10:44,23°,SE,,,,
,13-Oct,STARLINK-3114,4.4,20:07:12,10°,SSW,20:11:37,44°,SE,20:12:38,38°,E,,,,
,13-Oct,STARLINK-3349,5.1,20:07:12,10°,SSW,20:11:00,26°,SE,20:11:46,25°,SE,,,,
,13-Oct,STARLINK-3930,3.7,20:07:15,10°,NNW,20:11:51,70°,NE,20:14:11,26°,SE,,,,
,13-Oct,STARLINK-3297,?,20:07:22,10°,SW,20:08:39,11°,SSW,20:09:58,10°,SSW,,,,
,13-Oct,STARLINK-4205,5.9,20:07:25,10°,WSW,20:10:49,22°,NW,20:14:12,10°,N,,,,
,13-Oct,STARLINK-3095,4.6,20:07:26,10°,NNW,20:12:22,65°,WSW,20:17:37,10°,SSE,,,,
,13-Oct,STARLINK-3357,?,20:07:36,10°,WSW,20:10:06,15°,SSW,20:12:38,10°,S,,,,
,13-Oct,STARLINK-1488,4.9,20:07:39,10°,WNW,20:11:16,37°,SW,20:14:55,10°,SSE,,,,
,13-Oct,STARLINK-1650,5.1,20:07:43,10°,WSW,20:10:41,26°,NW,20:12:34,17°,N,,,,
,13-Oct,STARLINK-2432,4.7,20:07:44,10°,NNW,20:13:32,44°,NE,20:15:15,34°,E,,,,
,13-Oct,STARLINK-4027,4.5,20:07:50,10°,NNW,20:10:27,31°,NNE,20:10:27,31°,NNE,,,,
,13-Oct,STARLINK-3686,4.2,20:07:59,10°,SSW,20:12:57,50°,SE,20:13:56,42°,E,,,,
,13-Oct,STARLINK-4461,?,20:08:10,19°,NE,20:24:07,60°,ESE,21:22:18,10°,S,,,,
,13-Oct,STARLINK-1557,3.5,20:08:19,10°,NNW,20:12:26,63°,NE,20:13:40,41°,ESE,,,,
,13-Oct,STARLINK-1960,5.8,20:08:20,10°,W,20:11:15,22°,SW,20:14:15,10°,SSE,,,,
,13-Oct,STARLINK-2350,3.7,20:08:20,10°,SSW,20:12:00,46°,SE,20:12:11,45°,SE,,,,
,13-Oct,STARLINK-4810,4.2,20:08:25,10°,NW,20:12:24,56°,SW,20:16:26,10°,SSE,,,,
,13-Oct,STARLINK-4574,6.6,20:08:30,10°,SW,20:10:06,12°,SSW,20:11:42,10°,S,,,,
,13-Oct,STARLINK-4101,5.6,20:08:38,10°,S,20:11:13,16°,SE,20:11:33,16°,SE,,,,
,13-Oct,FLOCK 4S 3,?,20:08:58,10°,SSE,20:09:26,14°,SSE,20:09:26,14°,SSE,,,,
,13-Oct,FLOCK 4S 29,?,20:08:59,10°,SSE,20:09:34,14°,SSE,20:09:34,14°,SSE,,,,
,13-Oct,STARLINK-1711,5.7,20:09:04,10°,WSW,20:13:59,45°,NW,20:21:32,13°,NNE,,,,
,13-Oct,STARLINK-4141,5.7,20:09:05,10°,S,20:11:17,14°,SE,20:11:35,14°,SE,,,,
,13-Oct,STARLINK-3388,?,20:09:22,10°,WSW,20:11:34,14°,SSW,20:13:47,10°,S,,,,
,13-Oct,STARLINK-1866,5.8,20:09:26,10°,S,20:10:55,12°,SSE,20:11:11,12°,SE,,,,
,13-Oct,STARLINK-2484,4.6,20:09:35,10°,SSW,20:13:30,33°,SE,20:14:01,32°,ESE,,,,
,13-Oct,STARLINK-2219,?,20:09:51,10°,NNW,20:11:27,20°,N,20:11:27,20°,N,,,,
,13-Oct,QPS-SAR-2 IZANAMI,?,20:09:54,10°,SSE,20:10:08,12°,SSE,20:10:08,12°,SSE,,,,
,13-Oct,STARLINK-1881,5.4,20:09:57,10°,WSW,20:13:33,27°,NW,20:15:55,16°,N,,,,
,13-Oct,STARLINK-1290,5,20:10:12,10°,WNW,20:13:12,30°,SW,20:16:08,10°,SSE,,,,
,13-Oct,STARLINK-2056,4.1,20:10:15,10°,SW,20:13:58,50°,NW,20:15:16,34°,N,,,,
,13-Oct,STARLINK-2574,4.8,20:10:18,10°,SSW,20:13:50,27°,SE,20:14:09,27°,SE,,,,
,13-Oct,STARLINK-1531,4.5,20:10:21,10°,SW,20:14:34,47°,NW,20:16:24,29°,N,,,,
,13-Oct,STARLINK-1167,5.2,20:10:24,10°,SSW,20:13:25,20°,SE,20:13:35,19°,SE,,,,
,13-Oct,STARLINK-3824,5.7,20:10:26,10°,S,20:13:38,18°,SE,20:14:26,17°,SE,,,,
,13-Oct,STARLINK-3325,5.1,20:10:27,10°,SSW,20:13:49,23°,SE,20:14:06,23°,SE,,,,
,13-Oct,STARLINK-3459,?,20:10:28,10°,NNW,20:14:02,46°,NNE,20:14:02,46°,NNE,,,,
,13-Oct,STARLINK-1755,3.3,20:10:32,10°,NW,20:14:31,79°,NE,20:16:02,37°,SE,,,,
,13-Oct,STARLINK-1324,5.9,20:10:37,10°,W,20:13:15,17°,NW,20:15:52,10°,NNW,,,,
,13-Oct,STARLINK-1646,3.6,20:10:41,10°,NW,20:14:57,74°,NE,20:17:15,28°,SE,,,,
,13-Oct,STARLINK-3155,?,20:10:41,10°,SW,20:14:48,83°,NW,20:15:47,51°,NNE,,,,
,13-Oct,STARLINK-2641,5.5,20:10:43,10°,S,20:13:43,18°,SE,20:14:11,17°,SE,,,,
,13-Oct,STARLINK-2580,6.3,20:11:24,10°,W,20:13:59,16°,WNW,20:16:34,10°,NNW,,,,
,13-Oct,STARLINK-1829,6.3,20:11:25,10°,W,20:16:17,31°,SW,20:21:40,10°,SSE,,,,
,13-Oct,STARLINK-4298,5.2,20:11:36,10°,WSW,20:15:03,28°,NW,20:17:08,18°,N,,,,
,13-Oct,STARLINK-2162,4,20:11:41,10°,SW,20:16:09,58°,SE,20:16:58,49°,E,,,,
,13-Oct,STARLINK-1271,3.7,20:11:43,10°,NNW,20:16:00,62°,NE,20:17:26,40°,ESE,,,,
,13-Oct,STARLINK-3582,?,20:12:06,10°,WNW,20:15:43,29°,SW,20:19:28,10°,SSE,,,,
,13-Oct,STARLINK-1792,4.5,20:12:10,10°,NNW,20:15:59,38°,NNE,20:15:59,38°,NNE,,,,
,13-Oct,KEPLER-12 (BOBA),?,20:12:19,10°,SSE,20:12:54,14°,SSE,20:12:54,14°,SSE,,,,
,13-Oct,STARLINK-1922,6.5,20:12:24,10°,W,20:15:30,19°,SW,20:18:41,10°,S,,,,
,13-Oct,STARLINK-3984,6.1,20:12:24,10°,W,20:15:36,22°,SW,20:18:51,10°,SSE,,,,
,13-Oct,STARLINK-3791,4.5,20:12:39,10°,NNW,20:15:35,34°,NNE,20:15:35,34°,NNE,,,,
,13-Oct,STARLINK-3148,?,20:12:46,10°,WNW,20:17:07,34°,SW,20:21:08,10°,SSE,,,,
,13-Oct,STARLINK-1347,5.9,20:12:49,10°,SW,20:20:43,66°,NW,20:28:12,21°,NNE,,,,
,13-Oct,STARLINK-1924,4.2,20:12:49,10°,SW,20:16:31,45°,NW,20:17:38,34°,N,,,,
,13-Oct,STARLINK-3121,6.2,20:13:06,10°,SSE,20:14:30,11°,SSE,20:15:18,11°,SE,,,,
,13-Oct,STARLINK-3800,6,20:13:13,10°,S,20:14:51,12°,SSE,20:15:15,12°,SE,,,,
,13-Oct,STARLINK-3807,6.1,20:13:33,10°,SSE,20:14:02,10°,SSE,20:14:32,10°,SE,,,,
,13-Oct,STARLINK-1918,7.4,20:13:57,10°,WSW,20:20:47,25°,SSW,20:27:57,10°,SSE,,,,
,13-Oct,STARLINK-4788,4.4,20:14:01,10°,WNW,20:18:01,51°,SW,20:22:04,10°,SSE,,,,
,13-Oct,STARLINK-1325,4.9,20:14:02,10°,NNW,20:21:55,57°,NE,20:25:23,26°,ESE,,,,
,13-Oct,STARLINK-1928,5.4,20:14:03,10°,WNW,20:18:03,34°,SW,20:22:11,10°,SSE,,,,
,13-Oct,STARLINK-2291,3.4,20:14:13,10°,NW,20:18:08,86°,SW,20:19:41,35°,SE,,,,
,13-Oct,STARLINK-4012,4.8,20:14:13,10°,WNW,20:18:07,42°,SW,20:22:03,10°,SSE,,,,
,13-Oct,STARLINK-4614,6.7,20:14:37,10°,WSW,20:16:31,13°,SSW,20:18:26,10°,S,,,,
,13-Oct,STARLINK-3387,?,20:14:51,10°,W,20:18:27,28°,SW,20:22:07,10°,SSE,,,,
,13-Oct,STARLINK-2089,5.4,20:14:54,10°,WNW,20:18:40,32°,SW,20:22:32,10°,SSE,,,,
,13-Oct,STARLINK-1541,5.6,20:15:09,10°,NNW,20:16:09,16°,N,20:16:09,16°,N,,,,
,13-Oct,STARLINK-2038,5.7,20:15:10,10°,NNW,20:15:41,13°,NNW,20:15:41,13°,NNW,,,,
,13-Oct,STARLINK-1688,6.6,20:15:23,10°,W,20:18:51,20°,SW,20:22:24,10°,SSE,,,,
,13-Oct,STARLINK-1961,3.4,20:15:26,10°,SW,20:19:22,64°,SE,20:19:32,64°,ESE,,,,
,13-Oct,STARLINK-2368,5.7,20:15:45,10°,W,20:19:23,27°,SW,20:22:52,10°,SSE,,,,
,13-Oct,STARLINK-1414,3.5,20:15:46,10°,NW,20:19:25,70°,SW,20:20:57,33°,SSE,,,,
,13-Oct,STARLINK-1547,4,20:16:01,10°,NW,20:20:22,89°,NE,20:25:57,10°,SE,,,,
,13-Oct,STARLINK-1712,8.3,20:16:10,10°,WNW,20:19:06,12°,WNW,20:22:17,10°,NW,,,,
,13-Oct,STARLINK-3354,?,20:16:36,10°,NNW,20:17:10,13°,N,20:17:10,13°,N,,,,
,13-Oct,STARLINK-4124,5.2,20:16:36,10°,WSW,20:20:49,34°,NW,20:23:01,22°,N,,,,
,13-Oct,SKYSAT C15,?,20:16:47,10°,W,20:19:43,24°,SW,20:22:40,10°,SSE,,,,
,13-Oct,STARLINK-1725,6,20:16:53,10°,W,20:19:33,17°,NW,20:22:03,11°,NNW,,,,
,13-Oct,STARLINK-4066,5,20:16:54,10°,SSW,20:21:22,30°,SE,20:21:54,29°,SE,,,,
,13-Oct,STARLINK-4106,4.5,20:16:55,10°,SSW,20:20:42,34°,SE,20:20:44,34°,SE,,,,
,13-Oct,STARLINK-3988,6.2,20:17:01,10°,W,20:20:07,20°,SW,20:23:13,10°,SSE,,,,
,13-Oct,STARLINK-2408,4.2,20:17:06,10°,WNW,20:20:54,53°,SW,20:23:45,16°,SSE,,,,
,13-Oct,STARLINK-1975,7.9,20:17:14,10°,WSW,20:29:35,36°,WNW,20:42:13,10°,N,,,,
,13-Oct,STARLINK-1884,6,20:17:19,10°,W,20:19:40,16°,WNW,20:22:00,10°,NNW,,,,
,13-Oct,STARLINK-2672,4.7,20:17:56,10°,NNW,20:20:17,30°,N,20:20:17,30°,N,,,,
,13-Oct,STARLINK-4185,4.9,20:17:56,10°,SSW,20:21:22,27°,SE,20:21:22,27°,SE,,,,
,13-Oct,STARLINK-4757,6.1,20:18:10,10°,N,20:18:10,10°,N,20:18:10,10°,N,,,,
,13-Oct,STARLINK-4178,5.8,20:18:22,10°,S,20:20:29,14°,SSE,20:20:32,14°,SE,,,,
,13-Oct,STARLINK-3118,4.2,20:18:23,10°,SW,20:21:20,37°,WNW,20:21:58,32°,NW,,,,
,13-Oct,STARLINK-1628,6.5,20:18:24,10°,WSW,20:22:43,18°,WNW,20:25:49,10°,NNW,,,,
,13-Oct,STARLINK-3323,3.5,20:19:01,10°,SW,20:23:07,79°,NW,20:23:37,66°,NNE,,,,
,13-Oct,STARLINK-4026,5.4,20:19:03,10°,WNW,20:22:44,31°,SW,20:26:26,10°,SSE,,,,
,13-Oct,STARLINK-1812,6.5,20:19:23,10°,W,20:22:27,18°,SW,20:25:34,10°,S,,,,
,13-Oct,FALCON 9 DEB,?,20:19:25,10°,W,20:21:23,20°,SW,20:22:05,18°,SSW,,,,
,13-Oct,STARLINK-1026,5.9,20:19:37,10°,S,20:22:22,15°,SSE,20:22:50,15°,SE,,,,
,13-Oct,STARLINK-3320,5.1,20:19:43,10°,SSW,20:22:57,24°,SE,20:22:57,24°,SE,,,,
,13-Oct,STARLINK-1528,5.6,20:19:53,10°,S,20:22:01,16°,SSE,20:22:01,16°,SSE,,,,
,13-Oct,STARLINK-4756,3.4,20:20:06,10°,NW,20:24:13,81°,NE,20:24:47,65°,ESE,,,,
,13-Oct,STARLINK-2582,5.1,20:20:10,10°,SW,20:26:19,76°,SE,20:29:53,37°,NE,,,,
,13-Oct,STARLINK-3251,?,20:20:10,10°,SW,20:24:16,83°,SE,20:24:30,77°,ENE,,,,
,13-Oct,STARLINK-2494,6.2,20:20:22,10°,WSW,20:23:40,19°,WNW,20:26:55,10°,NNW,,,,
,13-Oct,SPACEBEE-63,?,20:20:29,10°,SSE,20:22:01,26°,SSE,20:22:01,26°,SSE,,,,
,13-Oct,STARLINK-2209,5.7,20:20:34,10°,S,20:23:33,17°,SE,20:23:43,17°,SE,,,,
,13-Oct,STARLINK-3801,4.1,20:20:38,10°,SSW,20:24:52,47°,SE,20:25:01,47°,SE,,,,
,13-Oct,STARLINK-1052,4.2,20:20:41,10°,SSW,20:25:07,53°,SE,20:25:43,50°,ESE,,,,
,13-Oct,STARLINK-4090,3.7,20:20:41,10°,SW,20:24:43,58°,SE,20:24:43,58°,SE,,,,
,13-Oct,STARLINK-2336,5.2,20:20:52,10°,NNW,20:22:29,22°,NNW,20:22:29,22°,NNW,,,,
,13-Oct,STARLINK-3794,6.6,20:20:52,10°,WSW,20:23:06,14°,SW,20:25:20,10°,S,,,,
,13-Oct,STARLINK-1891,5.3,20:20:55,10°,S,20:22:13,16°,SSE,20:22:13,16°,SSE,,,,
,13-Oct,STARLINK-4566,6.1,20:21:28,10°,SE,20:21:48,12°,SE,20:21:48,12°,SE,,,,
,13-Oct,STARLINK-3940,5.3,20:21:44,10°,NNW,20:23:44,23°,N,20:23:44,23°,N,,,,
,13-Oct,STARLINK-2071,6.3,20:22:13,10°,W,20:25:26,20°,SW,20:28:45,10°,SSE,,,,
,13-Oct,STARLINK-4743,?,20:22:18,10°,W,20:25:41,24°,SW,20:29:07,10°,SSE,,,,
,13-Oct,STARLINK-4095,6.1,20:22:24,10°,W,20:25:10,17°,WNW,20:27:44,11°,NNW,,,,
,13-Oct,STARLINK-1736,4.7,20:22:29,10°,SSW,20:25:46,31°,SSE,20:25:46,31°,SSE,,,,
,13-Oct,STARLINK-2394,4.7,20:22:29,10°,SSW,20:27:01,38°,SE,20:27:23,37°,SE,,,,
,13-Oct,STARLINK-2070,5.4,20:22:31,10°,WNW,20:27:02,39°,SW,20:31:38,10°,SSE,,,,
,13-Oct,STARLINK-2591,6.4,20:22:49,10°,SSE,20:23:10,10°,SSE,20:23:31,10°,SSE,,,,
,13-Oct,STARLINK-3976,3.3,20:22:51,10°,SW,20:26:54,88°,SE,20:26:59,85°,ENE,,,,
,13-Oct,STARLINK-1475,7.6,20:23:10,10°,SSW,20:29:20,19°,S,20:36:47,10°,SE,,,,
,13-Oct,STARLINK-3044,3.7,20:23:12,10°,SW,20:27:42,87°,SE,20:28:13,70°,NE,,,,
,13-Oct,STARLINK-1695,5.4,20:23:20,10°,SSW,20:27:11,25°,SE,20:27:26,25°,SE,,,,
,13-Oct,STARLINK-3303,?,20:23:20,10°,WNW,20:28:58,47°,SW,20:34:55,10°,SSE,,,,
,13-Oct,STARLINK-4022,6.7,20:23:26,10°,SW,20:24:53,11°,SSW,20:26:20,10°,S,,,,
,13-Oct,STARLINK-2439,4.5,20:23:29,10°,SSW,20:26:53,35°,SSE,20:26:53,35°,SSE,,,,
,13-Oct,STARLINK-1912,3.7,20:23:32,10°,NW,20:27:05,59°,N,20:27:05,59°,N,,,,
,13-Oct,STARLINK-2734,4.6,20:23:34,10°,WNW,20:27:34,46°,SW,20:31:09,12°,SSE,,,,
,13-Oct,FLOCK 4S 22,?,20:23:53,10°,SW,20:25:08,12°,WSW,20:26:23,10°,W,,,,
,13-Oct,STARLINK-4133,5,20:23:53,10°,SSW,20:27:22,28°,SE,20:27:22,28°,SE,,,,
,13-Oct,GLOBAL-13,?,20:23:54,10°,SW,20:29:49,87°,NW,20:31:15,52°,NE,,,,
,13-Oct,STARLINK-2684,5.6,20:24:07,10°,S,20:26:52,18°,SSE,20:26:52,18°,SSE,,,,
,13-Oct,STARLINK-2400,4.6,20:24:19,10°,SSW,20:27:19,31°,SSE,20:27:19,31°,SSE,,,,
,13-Oct,STARLINK-1232,4.2,20:24:22,10°,WNW,20:27:46,46°,SW,20:29:25,26°,SSE,,,,
,13-Oct,STARLINK-2112,3.5,20:24:22,10°,NW,20:28:28,77°,NE,20:28:28,77°,NE,,,,
,13-Oct,STARLINK-4781,5.1,20:24:34,10°,WNW,20:28:23,35°,SW,20:32:13,10°,SSE,,,,
,13-Oct,STARLINK-1739,4,20:24:43,10°,SW,20:28:09,44°,NW,20:28:21,43°,NW,,,,
,13-Oct,STARLINK-2681,3.9,20:25:01,10°,SW,20:29:26,68°,NW,20:30:03,59°,N,,,,
,13-Oct,STARLINK-1627,6.9,20:25:10,10°,SW,20:25:33,10°,SSW,20:25:55,10°,SSW,,,,
,13-Oct,STARLINK-1063,4,20:25:21,10°,SW,20:30:07,72°,NW,20:30:59,57°,N,,,,
,13-Oct,STARLINK-3893,4.3,20:25:25,10°,NNW,20:28:45,44°,N,20:28:45,44°,N,,,,
,13-Oct,STARLINK-4171,?,20:25:26,10°,W,20:28:26,19°,SW,20:31:30,10°,S,,,,
,13-Oct,STARLINK-1131,4.4,20:25:43,10°,SSW,20:30:34,52°,SE,20:31:02,50°,ESE,,,,
,13-Oct,STARLINK-3527,?,20:25:48,10°,NNW,20:25:49,10°,NNW,20:25:49,10°,NNW,,,,
,13-Oct,STARLINK-2008,5.8,20:26:18,10°,S,20:28:08,14°,SSE,20:28:08,14°,SSE,,,,
,13-Oct,STARLINK-1407,7.4,20:26:36,10°,SW,20:39:28,51°,WNW,20:53:06,12°,N,,,,
,13-Oct,STARLINK-2628,6.4,20:26:39,10°,SSE,20:28:04,11°,SSE,20:28:46,11°,SE,,,,
,13-Oct,STARLINK-2154,7.1,20:26:42,10°,SW,20:27:12,10°,SSW,20:27:41,10°,SSW,,,,
,13-Oct,FALCON 9 DEB,?,20:26:48,10°,WSW,20:27:46,13°,SW,20:27:46,13°,SW,,,,
,13-Oct,STARLINK-1907,5.6,20:26:51,10°,W,20:29:18,17°,WNW,20:30:24,15°,NW,,,,
,13-Oct,STARLINK-2465,6.5,20:27:03,10°,WNW,20:28:10,11°,WNW,20:29:16,10°,NW,,,,
,13-Oct,STARLINK-1706,5.7,20:27:12,10°,WSW,20:31:56,30°,WNW,20:34:18,20°,NNW,,,,
,13-Oct,STARLINK-1595,3.6,20:27:18,10°,SW,20:31:31,75°,NW,20:31:39,74°,NNW,,,,
,13-Oct,STARLINK-1022,7,20:27:24,10°,SW,20:29:45,13°,SSW,20:32:17,10°,S,,,,
,13-Oct,STARLINK-4533,?,20:27:24,10°,NW,20:31:10,61°,NNW,20:31:10,61°,NNW,,,,
,13-Oct,STARLINK-2243,4.3,20:27:25,10°,WSW,20:30:50,38°,NW,20:31:03,38°,NW,,,,
,13-Oct,STARLINK-4031,6,20:27:37,10°,W,20:30:15,17°,WNW,20:32:12,12°,NNW,,,,
,13-Oct,LEMUR 2 NALLYWACKER,?,20:27:42,10°,WSW,20:28:12,10°,WSW,20:28:43,10°,W,,,,
,13-Oct,STARLINK-4088,4.6,20:28:00,10°,SSW,20:31:10,34°,SSE,20:31:10,34°,SSE,,,,
,13-Oct,STARLINK-2164,5.1,20:28:18,10°,SSW,20:31:44,27°,SSE,20:31:44,27°,SSE,,,,
,13-Oct,STARLINK-2169,5.9,20:28:44,10°,S,20:31:06,15°,SSE,20:31:06,15°,SSE,,,,
,13-Oct,GLOBAL-12,?,20:28:44,10°,SSW,20:34:18,47°,SE,20:34:54,45°,ESE,,,,
,13-Oct,STARLINK-1871,3.9,20:28:46,10°,NW,20:32:58,68°,SW,20:34:27,38°,SSE,,,,
,13-Oct,STARLINK-3244,?,20:29:04,10°,WSW,20:32:19,23°,NW,20:33:38,20°,NNW,,,,
,13-Oct,STARLINK-2717,6.8,20:29:10,10°,SW,20:30:25,11°,SSW,20:31:41,10°,SSW,,,,
,13-Oct,STARLINK-5119,6.1,20:29:28,10°,S,20:31:01,12°,SSE,20:31:01,12°,SSE,,,,
,13-Oct,STARLINK-3319,5.7,20:29:42,10°,W,20:31:47,15°,WNW,20:32:49,13°,NW,,,,
,13-Oct,STARLINK-2347,5.8,20:29:45,10°,SSW,20:33:31,21°,SE,20:33:44,21°,SE,,,,
,13-Oct,STARLINK-4004,5.8,20:29:46,10°,WSW,20:32:48,20°,NW,20:34:26,16°,NNW,,,,
,13-Oct,STARLINK-2326,6.7,20:29:55,10°,WSW,20:32:12,14°,SSW,20:34:29,10°,S,,,,
,13-Oct,STARLINK-2006,5.7,20:30:03,10°,S,20:31:45,16°,SSE,20:31:45,16°,SSE,,,,
,13-Oct,STARLINK-3328,5.3,20:30:06,10°,SSW,20:32:46,22°,SSE,20:32:46,22°,SSE,,,,
,13-Oct,STARLINK-4767,4.3,20:30:25,10°,WNW,20:34:26,52°,SW,20:36:33,25°,SSE,,,,
,13-Oct,STARLINK-4211,?,20:30:37,10°,WSW,20:32:40,13°,SSW,20:34:45,10°,S,,,,
,13-Oct,STARLINK-3974,6.3,20:30:42,10°,W,20:33:38,19°,SW,20:36:34,10°,S,,,,
,13-Oct,STARLINK-3107,7.4,20:30:47,10°,W,20:34:20,17°,WSW,20:37:55,10°,SSW,,,,
,13-Oct,STARLINK-3332,5.4,20:30:48,10°,SSW,20:33:09,20°,SSE,20:33:09,20°,SSE,,,,
,13-Oct,STARLINK-4023,3.7,20:30:49,10°,SW,20:35:03,73°,NW,20:35:03,73°,NW,,,,
,13-Oct,STARLINK-3978,6.2,20:31:16,10°,W,20:34:13,19°,SW,20:37:10,10°,S,,,,
,13-Oct,STARLINK-1738,6.6,20:31:34,10°,WNW,20:40:55,60°,SW,20:53:53,10°,SE,,,,
,13-Oct,STARLINK-2468,5.5,20:31:39,10°,SSW,20:34:06,20°,SSE,20:34:06,20°,SSE,,,,
,13-Oct,STARLINK-1994,6.8,20:31:55,10°,WSW,20:34:17,14°,SSW,20:36:44,10°,S,,,,
,13-Oct,STARLINK-2115,5.9,20:31:57,10°,WSW,20:34:57,18°,WNW,20:36:44,14°,NNW,,,,
,13-Oct,STARLINK-4142,6.2,20:32:20,10°,SSE,20:33:16,11°,SSE,20:33:16,11°,SSE,,,,
,13-Oct,STARLINK-3526,?,20:32:29,10°,SSW,20:35:55,21°,SE,20:35:55,21°,SE,,,,
,13-Oct,STARLINK-4140,6.2,20:32:46,10°,SSE,20:33:46,11°,SSE,20:33:46,11°,SSE,,,,
,13-Oct,STARLINK-1149,3.9,20:32:47,10°,SW,20:37:33,67°,SE,20:37:33,67°,SE,,,,
,13-Oct,STARLINK-3928,5.6,20:33:12,10°,W,20:36:45,28°,SW,20:40:20,10°,SSE,,,,
,13-Oct,STARLINK-3234,5.8,20:33:29,10°,WSW,20:36:38,20°,WNW,20:38:11,17°,NNW,,,,
,13-Oct,STARLINK-3806,5.5,20:33:40,10°,SSW,20:36:12,20°,SSE,20:36:12,20°,SSE,,,,
,13-Oct,STARLINK-3571,?,20:33:44,10°,NW,20:37:48,71°,SW,20:38:02,69°,SSW,,,,
,13-Oct,STARLINK-4800,5.4,20:33:45,10°,WNW,20:37:26,31°,SW,20:41:11,10°,SSE,,,,
,13-Oct,STARLINK-2254,6.4,20:33:49,10°,SSE,20:34:41,10°,SSE,20:35:13,10°,SSE,,,,
,13-Oct,STARLINK-2622,6.5,20:33:51,10°,WSW,20:36:46,17°,SSW,20:39:46,10°,S,,,,
,13-Oct,STARLINK-2657,5.9,20:33:53,10°,W,20:37:15,24°,SW,20:40:41,10°,SSE,,,,
